{"type": "FeatureCollection", "features": [{"type": "Feature", "geometry": {"type": "Point", "coordinates": [-124.052222, 48.829444]}, "properties": {"Name": "LAKE COWICHAN, BC", "ID": "1012055", "Elevation_": "171 m"}}, {"type": "Feature", "geometry": {"type": "Point", "coordinates": [-124.0, 48.5]}, "properties": {"Name": "JORDAN RIVER DIVERSION, BC", "ID": "1013754", "Elevation_": "393 m"}}, {"type": "Feature", "geometry": {"type": "Point", "coordinates": [-124.05, 48.416667]}, "properties": {"Name": "JORDAN RIVER GENERATING, BC", "ID": "1013755", "Elevation_": "4 m"}}, {"type": "Feature", "geometry": {"type": "Point", "coordinates": [-123.718333, 48.824167]}, "properties": {"Name": "NORTH COWICHAN, BC", "ID": "1015628", "Elevation_": "45 m"}}, {"type": "Feature", "geometry": {"type": "Point", "coordinates": [-124.326389, 48.591667]}, "properties": {"Name": "PORT RENFREW, BC", "ID": "1016335", "Elevation_": "10 m"}}, {"type": "Feature", "geometry": {"type": "Point", "coordinates": [-123.416667, 48.5]}, "properties": {"Name": "SAANICH CAMOSUN COLLEGE, BC", "ID": "1016941", "Elevation_": "38 m"}}, {"type": "Feature", "geometry": {"type": "Point", "coordinates": [-123.128078, 48.775022]}, "properties": {"Name": "SATURNA CAPMON CS, BC", "ID": "1017099", "Elevation_": "178 m"}}, {"type": "Feature", "geometry": {"type": "Point", "coordinates": [-123.044745, 48.783907]}, "properties": {"Name": "SATURNA ISLAND CS, BC", "ID": "1017101", "Elevation_": "24 m"}}, {"type": "Feature", "geometry": {"type": "Point", "coordinates": [-123.921028, 48.376694]}, "properties": {"Name": "SHERINGHAM POINT, BC", "ID": "1017254", "Elevation_": "6 m"}}, {"type": "Feature", "geometry": {"type": "Point", "coordinates": [-123.304611, 48.457]}, "properties": {"Name": "VICTORIA UNIVERSITY CS, BC", "ID": "1018598", "Elevation_": "60 m"}}, {"type": "Feature", "geometry": {"type": "Point", "coordinates": [-123.324776, 48.413304]}, "properties": {"Name": "VICTORIA GONZALES CS, BC", "ID": "1018611", "Elevation_": "61 m"}}, {"type": "Feature", "geometry": {"type": "Point", "coordinates": [-123.425833, 48.647222]}, "properties": {"Name": "VICTORIA INTL A, BC", "ID": "1018621", "Elevation_": "19 m"}}, {"type": "Feature", "geometry": {"type": "Point", "coordinates": [-123.75, 48.366667]}, "properties": {"Name": "VICTORIA MARINE, BC", "ID": "1018642", "Elevation_": "31 m"}}, {"type": "Feature", "geometry": {"type": "Point", "coordinates": [-125.273056, 49.951944]}, "properties": {"Name": "CAMPBELL RIVER A, BC", "ID": "1021261", "Elevation_": "108 m"}}, {"type": "Feature", "geometry": {"type": "Point", "coordinates": [-125.233333, 50.016667]}, "properties": {"Name": "CAMPBELL RIVER STP, BC", "ID": "1021265", "Elevation_": "3 m"}}, {"type": "Feature", "geometry": {"type": "Point", "coordinates": [-124.9, 49.716667]}, "properties": {"Name": "COMOX A, BC", "ID": "1021830", "Elevation_": "25 m"}}, {"type": "Feature", "geometry": {"type": "Point", "coordinates": [-125.033333, 49.683333]}, "properties": {"Name": "COURTENAY PUNTLEDGE BCHP, BC", "ID": "1021990", "Elevation_": "24 m"}}, {"type": "Feature", "geometry": {"type": "Point", "coordinates": [-123.810556, 49.208665]}, "properties": {"Name": "ENTRANCE ISLAND, BC", "ID": "1022689", "Elevation_": "7 m"}}, {"type": "Feature", "geometry": {"type": "Point", "coordinates": [-125.992896, 50.453517]}, "properties": {"Name": "FANNY ISLAND, BC", "ID": "1022795", "Elevation_": "5 m"}}, {"type": "Feature", "geometry": {"type": "Point", "coordinates": [-123.87, 49.054444]}, "properties": {"Name": "NANAIMO A, BC", "ID": "1025369", "Elevation_": "28 m"}}, {"type": "Feature", "geometry": {"type": "Point", "coordinates": [-123.987851, 49.199148]}, "properties": {"Name": "NANAIMO CITY YARD, BC", "ID": "10253G0", "Elevation_": "114 m"}}, {"type": "Feature", "geometry": {"type": "Point", "coordinates": [-123.95, 49.216667]}, "properties": {"Name": "NANAIMO DEPARTURE BAY, BC", "ID": "1025C70", "Elevation_": "7 m"}}, {"type": "Feature", "geometry": {"type": "Point", "coordinates": [-127.366111, 50.680278]}, "properties": {"Name": "PORT HARDY A, BC", "ID": "1026270", "Elevation_": "21 m"}}, {"type": "Feature", "geometry": {"type": "Point", "coordinates": [-124.393889, 49.337222]}, "properties": {"Name": "QUALICUM BEACH AIRPORT, BC", "ID": "1026562", "Elevation_": "58 m"}}, {"type": "Feature", "geometry": {"type": "Point", "coordinates": [-125.583333, 50.0]}, "properties": {"Name": "STRATHCONA DAM, BC", "ID": "1027775", "Elevation_": "201 m"}}, {"type": "Feature", "geometry": {"type": "Point", "coordinates": [-125.541112, 48.921113]}, "properties": {"Name": "AMPHITRITE POINT, BC", "ID": "1030426", "Elevation_": "26 m"}}, {"type": "Feature", "geometry": {"type": "Point", "coordinates": [-125.0, 48.9]}, "properties": {"Name": "CARNATION CREEK CDF, BC", "ID": "1031413", "Elevation_": "61 m"}}, {"type": "Feature", "geometry": {"type": "Point", "coordinates": [-126.543109, 49.383309]}, "properties": {"Name": "ESTEVAN POINT CS, BC", "ID": "1032731", "Elevation_": "5 m"}}, {"type": "Feature", "geometry": {"type": "Point", "coordinates": [-124.926833, 49.316583]}, "properties": {"Name": "PORT ALBERNI (AUT), BC", "ID": "1036B06", "Elevation_": "76 m"}}, {"type": "Feature", "geometry": {"type": "Point", "coordinates": [-125.772506, 49.082222]}, "properties": {"Name": "TOFINO A, BC", "ID": "1038205", "Elevation_": "24 m"}}, {"type": "Feature", "geometry": {"type": "Point", "coordinates": [-123.533333, 49.716667]}, "properties": {"Name": "CLOWHOM FALLS, BC", "ID": "1041710", "Elevation_": "22 m"}}, {"type": "Feature", "geometry": {"type": "Point", "coordinates": [-123.133333, 49.983333]}, "properties": {"Name": "DAISY LAKE DAM, BC", "ID": "1042255", "Elevation_": "381 m"}}, {"type": "Feature", "geometry": {"type": "Point", "coordinates": [-123.912511, 49.467508]}, "properties": {"Name": "MERRY ISLAND LIGHTSTATION, BC", "ID": "1045100", "Elevation_": "7 m"}}, {"type": "Feature", "geometry": {"type": "Point", "coordinates": [-123.299453, 49.48778]}, "properties": {"Name": "HOWE SOUND - PAM ROCKS, BC", "ID": "10459NN", "Elevation_": "7 m"}}, {"type": "Feature", "geometry": {"type": "Point", "coordinates": [-123.49625, 49.526306]}, "properties": {"Name": "PORT MELLON, BC", "ID": "1046332", "Elevation_": "125 m"}}, {"type": "Feature", "geometry": {"type": "Point", "coordinates": [-124.496806, 49.834556]}, "properties": {"Name": "POWELL RIVER, BC", "ID": "1046392", "Elevation_": "125 m"}}, {"type": "Feature", "geometry": {"type": "Point", "coordinates": [-123.715262, 49.457997]}, "properties": {"Name": "SECHELT AUT, BC", "ID": "1047172", "Elevation_": "86 m"}}, {"type": "Feature", "geometry": {"type": "Point", "coordinates": [-123.161194, 49.783208]}, "properties": {"Name": "SQUAMISH AIRPORT, BC", "ID": "10476F0", "Elevation_": "53 m"}}, {"type": "Feature", "geometry": {"type": "Point", "coordinates": [-131.015833, 51.935833]}, "properties": {"Name": "CAPE ST JAMES, BC", "ID": "1051351", "Elevation_": "87 m"}}, {"type": "Feature", "geometry": {"type": "Point", "coordinates": [-133.058488, 54.255388]}, "properties": {"Name": "LANGARA ISLAND RCS, BC", "ID": "1054503", "Elevation_": "46 m"}}, {"type": "Feature", "geometry": {"type": "Point", "coordinates": [-132.128889, 52.934722]}, "properties": {"Name": "MORESBY ISLAND MITCHELL INLET, BC", "ID": "10551R8", "Elevation_": "3 m"}}, {"type": "Feature", "geometry": {"type": "Point", "coordinates": [-131.813056, 53.253889]}, "properties": {"Name": "SANDSPIT A, BC", "ID": "1057050", "Elevation_": "6 m"}}, {"type": "Feature", "geometry": {"type": "Point", "coordinates": [-126.595833, 52.3875]}, "properties": {"Name": "BELLA COOLA A, BC", "ID": "1060841", "Elevation_": "35 m"}}, {"type": "Feature", "geometry": {"type": "Point", "coordinates": [-126.816667, 52.366667]}, "properties": {"Name": "BELLA COOLA BC HYDRO, BC", "ID": "1060842", "Elevation_": "13 m"}}, {"type": "Feature", "geometry": {"type": "Point", "coordinates": [-130.6978, 54.58032]}, "properties": {"Name": "GREY ISLET (AUT), BC", "ID": "1063303", "Elevation_": "9 m"}}, {"type": "Feature", "geometry": {"type": "Point", "coordinates": [-127.63205, 50.939761]}, "properties": {"Name": "HERBERT ISLAND (AUT), BC", "ID": "1063461", "Elevation_": "13 m"}}, {"type": "Feature", "geometry": {"type": "Point", "coordinates": [-130.36085, 54.172234]}, "properties": {"Name": "HOLLAND ROCK, BC", "ID": "1063496", "Elevation_": "5 m"}}, {"type": "Feature", "geometry": {"type": "Point", "coordinates": [-128.683333, 54.05]}, "properties": {"Name": "KITIMAT, BC", "ID": "1064288", "Elevation_": "12 m"}}, {"type": "Feature", "geometry": {"type": "Point", "coordinates": [-130.444722, 54.2925]}, "properties": {"Name": "PRINCE RUPERT A, BC", "ID": "1066481", "Elevation_": "35 m"}}, {"type": "Feature", "geometry": {"type": "Point", "coordinates": [-129.985, 55.936111]}, "properties": {"Name": "STEWART A, BC", "ID": "1067742", "Elevation_": "7 m"}}, {"type": "Feature", "geometry": {"type": "Point", "coordinates": [-128.5775, 54.466389]}, "properties": {"Name": "TERRACE A, BC", "ID": "1068130", "Elevation_": "217 m"}}, {"type": "Feature", "geometry": {"type": "Point", "coordinates": [-128.624722, 54.501944]}, "properties": {"Name": "TERRACE PCC, BC", "ID": "1068131", "Elevation_": "67 m"}}, {"type": "Feature", "geometry": {"type": "Point", "coordinates": [-126.9, 54.616667]}, "properties": {"Name": "QUICK, BC", "ID": "1076638", "Elevation_": "533 m"}}, {"type": "Feature", "geometry": {"type": "Point", "coordinates": [-127.182778, 54.824722]}, "properties": {"Name": "SMITHERS A, BC", "ID": "1077500", "Elevation_": "521 m"}}, {"type": "Feature", "geometry": {"type": "Point", "coordinates": [-122.866667, 50.833333]}, "properties": {"Name": "LAJOIE DAM, BC", "ID": "1084490", "Elevation_": "685 m"}}, {"type": "Feature", "geometry": {"type": "Point", "coordinates": [-125.996719, 53.771889]}, "properties": {"Name": "OOTSA LAKESKINS LAKE CLIMATE, BC", "ID": "1085836", "Elevation_": "861 m"}}, {"type": "Feature", "geometry": {"type": "Point", "coordinates": [-122.816667, 50.316667]}, "properties": {"Name": "PEMBERTON BCFS, BC", "ID": "1086083", "Elevation_": "218 m"}}, {"type": "Feature", "geometry": {"type": "Point", "coordinates": [-124.135556, 52.114444]}, "properties": {"Name": "PUNTZI MOUNTAIN (AUT), BC", "ID": "1086558", "Elevation_": "909 m"}}, {"type": "Feature", "geometry": {"type": "Point", "coordinates": [-125.766667, 54.033333]}, "properties": {"Name": "SOUTHBANK, BC", "ID": "1087600", "Elevation_": "730 m"}}, {"type": "Feature", "geometry": {"type": "Point", "coordinates": [-124.403139, 51.674556]}, "properties": {"Name": "TATLAYOKO LAKE RCS, BC", "ID": "1088015", "Elevation_": "875 m"}}, {"type": "Feature", "geometry": {"type": "Point", "coordinates": [-125.766667, 54.233333]}, "properties": {"Name": "BURNS LAKE, BC", "ID": "1091169", "Elevation_": "704 m"}}, {"type": "Feature", "geometry": {"type": "Point", "coordinates": [-124.285556, 54.45528]}, "properties": {"Name": "FORT ST JAMES, BC", "ID": "1092970", "Elevation_": "691 m"}}, {"type": "Feature", "geometry": {"type": "Point", "coordinates": [-124.25, 54.416667]}, "properties": {"Name": "FORT ST JAMES A, BC", "ID": "1092972", "Elevation_": "716 m"}}, {"type": "Feature", "geometry": {"type": "Point", "coordinates": [-121.416667, 52.333333]}, "properties": {"Name": "HORSEFLY BCFS, BC", "ID": "1093599", "Elevation_": "784 m"}}, {"type": "Feature", "geometry": {"type": "Point", "coordinates": [-122.366667, 52.816667]}, "properties": {"Name": "KERSLEY, BC", "ID": "1094125", "Elevation_": "670 m"}}, {"type": "Feature", "geometry": {"type": "Point", "coordinates": [-120.352667, 53.423389]}, "properties": {"Name": "MCBRIDE ELDER CREEK, BC", "ID": "1094948", "Elevation_": "733 m"}}, {"type": "Feature", "geometry": {"type": "Point", "coordinates": [-120.25, 53.366667]}, "properties": {"Name": "MCBRIDE NORTH, BC", "ID": "1094955", "Elevation_": "771 m"}}, {"type": "Feature", "geometry": {"type": "Point", "coordinates": [-122.671945, 53.888889]}, "properties": {"Name": "PRINCE GEORGE AIRPORT AUTO, BC", "ID": "1096453", "Elevation_": "680 m"}}, {"type": "Feature", "geometry": {"type": "Point", "coordinates": [-122.790834, 53.899725]}, "properties": {"Name": "PRINCE GEORGE MASSEY AUTO, BC", "ID": "1096454", "Elevation_": "601 m"}}, {"type": "Feature", "geometry": {"type": "Point", "coordinates": [-122.506391, 53.026669]}, "properties": {"Name": "QUESNEL AIRPORT AUTO, BC", "ID": "1096631", "Elevation_": "545 m"}}, {"type": "Feature", "geometry": {"type": "Point", "coordinates": [-122.054167, 52.183056]}, "properties": {"Name": "WILLIAMS LAKE A, BC", "ID": "1098940", "Elevation_": "939 m"}}, {"type": "Feature", "geometry": {"type": "Point", "coordinates": [-122.36, 49.025278]}, "properties": {"Name": "ABBOTSFORD A, BC", "ID": "1100030", "Elevation_": "59 m"}}, {"type": "Feature", "geometry": {"type": "Point", "coordinates": [-121.760278, 49.243056]}, "properties": {"Name": "AGASSIZ RCS, BC", "ID": "1100119", "Elevation_": "19 m"}}, {"type": "Feature", "geometry": {"type": "Point", "coordinates": [-122.483333, 49.283333]}, "properties": {"Name": "ALOUETTE LAKE, BC", "ID": "1100360", "Elevation_": "117 m"}}, {"type": "Feature", "geometry": {"type": "Point", "coordinates": [-122.954611, 50.128944]}, "properties": {"Name": "WHISTLER - NESTERS, BC", "ID": "1100875", "Elevation_": "659 m"}}, {"type": "Feature", "geometry": {"type": "Point", "coordinates": [-122.866667, 49.383333]}, "properties": {"Name": "BUNTZEN LAKE, BC", "ID": "1101140", "Elevation_": "10 m"}}, {"type": "Feature", "geometry": {"type": "Point", "coordinates": [-121.9, 49.116667]}, "properties": {"Name": "CHILLIWACK MICROWAVE, BC", "ID": "1101562", "Elevation_": "228 m"}}, {"type": "Feature", "geometry": {"type": "Point", "coordinates": [-122.8, 49.366667]}, "properties": {"Name": "COQUITLAM LAKE, BC", "ID": "1101890", "Elevation_": "160 m"}}, {"type": "Feature", "geometry": {"type": "Point", "coordinates": [-121.978611, 49.078889]}, "properties": {"Name": "CULTUS LAKE, BC", "ID": "1102221", "Elevation_": "45 m"}}, {"type": "Feature", "geometry": {"type": "Point", "coordinates": [-123.002246, 49.125848]}, "properties": {"Name": "DELTA BURNS BOG, BC", "ID": "1102415", "Elevation_": "3 m"}}, {"type": "Feature", "geometry": {"type": "Point", "coordinates": [-122.516667, 49.2]}, "properties": {"Name": "HANEY MICROWAVE, BC", "ID": "1103328", "Elevation_": "320 m"}}, {"type": "Feature", "geometry": {"type": "Point", "coordinates": [-122.573167, 49.264472]}, "properties": {"Name": "HANEY UBC RF ADMIN, BC", "ID": "1103332", "Elevation_": "147 m"}}, {"type": "Feature", "geometry": {"type": "Point", "coordinates": [-122.2, 49.033333]}, "properties": {"Name": "HUNTINGDON VYE ROAD, BC", "ID": "1103636", "Elevation_": "25 m"}}, {"type": "Feature", "geometry": {"type": "Point", "coordinates": [-122.583333, 49.05]}, "properties": {"Name": "LANGLEY LOCHIEL, BC", "ID": "1104555", "Elevation_": "100 m"}}, {"type": "Feature", "geometry": {"type": "Point", "coordinates": [-122.270556, 49.152501]}, "properties": {"Name": "MISSION WEST ABBEY, BC", "ID": "1105192", "Elevation_": "197 m"}}, {"type": "Feature", "geometry": {"type": "Point", "coordinates": [-123.033333, 49.366667]}, "properties": {"Name": "N VANCOUVER LYNN CREEK, BC", "ID": "1105660", "Elevation_": "190 m"}}, {"type": "Feature", "geometry": {"type": "Point", "coordinates": [-122.690021, 49.208323]}, "properties": {"Name": "PITT MEADOWS CS, BC", "ID": "1106178", "Elevation_": "5 m"}}, {"type": "Feature", "geometry": {"type": "Point", "coordinates": [-122.630611, 49.273222]}, "properties": {"Name": "PITT POLDER, BC", "ID": "1106180", "Elevation_": "5 m"}}, {"type": "Feature", "geometry": {"type": "Point", "coordinates": [-122.783333, 49.266667]}, "properties": {"Name": "PORT COQUITLAM CITY YARD, BC", "ID": "1106256", "Elevation_": "6 m"}}, {"type": "Feature", "geometry": {"type": "Point", "coordinates": [-122.881389, 49.279167]}, "properties": {"Name": "PORT MOODY GLENAYRE, BC", "ID": "1106CL2", "Elevation_": "129 m"}}, {"type": "Feature", "geometry": {"type": "Point", "coordinates": [-122.859736, 49.192222]}, "properties": {"Name": "SURREY KWANTLEN PARK, BC", "ID": "1107873", "Elevation_": "78 m"}}, {"type": "Feature", "geometry": {"type": "Point", "coordinates": [-122.827511, 49.106681]}, "properties": {"Name": "SURREY MUNICIPAL HALL, BC", "ID": "1107876", "Elevation_": "76 m"}}, {"type": "Feature", "geometry": {"type": "Point", "coordinates": [-123.187236, 49.1825]}, "properties": {"Name": "VANCOUVER SEA ISLAND CCG, BC", "ID": "1108380", "Elevation_": "2 m"}}, {"type": "Feature", "geometry": {"type": "Point", "coordinates": [-123.121869, 49.295353]}, "properties": {"Name": "VANCOUVER HARBOUR CS, BC", "ID": "1108446", "Elevation_": "2 m"}}, {"type": "Feature", "geometry": {"type": "Point", "coordinates": [-123.166667, 49.266667]}, "properties": {"Name": "VANCOUVER KITSILANO, BC", "ID": "1108453", "Elevation_": "12 m"}}, {"type": "Feature", "geometry": {"type": "Point", "coordinates": [-123.25, 49.25]}, "properties": {"Name": "VANCOUVER UBC, BC", "ID": "1108487", "Elevation_": "76 m"}}, {"type": "Feature", "geometry": {"type": "Point", "coordinates": [-122.783889, 49.018056]}, "properties": {"Name": "WHITE ROCK CAMPBELL SCIENTIFIC, BC", "ID": "1108910", "Elevation_": "13 m"}}, {"type": "Feature", "geometry": {"type": "Point", "coordinates": [-122.916667, 49.283333]}, "properties": {"Name": "BURNABY MTN BCHPA, BC", "ID": "110JA54", "Elevation_": "464 m"}}, {"type": "Feature", "geometry": {"type": "Point", "coordinates": [-123.0975, 49.3625]}, "properties": {"Name": "N VANC SONORA DR, BC", "ID": "110N6FF", "Elevation_": "182 m"}}, {"type": "Feature", "geometry": {"type": "Point", "coordinates": [-121.45, 49.783333]}, "properties": {"Name": "HELLS GATE, BC", "ID": "1113420", "Elevation_": "121 m"}}, {"type": "Feature", "geometry": {"type": "Point", "coordinates": [-121.493472, 49.369833]}, "properties": {"Name": "HOPE AIRPORT, BC", "ID": "1113543", "Elevation_": "39 m"}}, {"type": "Feature", "geometry": {"type": "Point", "coordinates": [-121.934151, 50.683728]}, "properties": {"Name": "LILLOOET, BC", "ID": "1114619", "Elevation_": "239 m"}}, {"type": "Feature", "geometry": {"type": "Point", "coordinates": [-121.583333, 50.233333]}, "properties": {"Name": "LYTTON, BC", "ID": "1114741", "Elevation_": "229 m"}}, {"type": "Feature", "geometry": {"type": "Point", "coordinates": [-122.240556, 50.728333]}, "properties": {"Name": "SHALALTH, BC", "ID": "1117215", "Elevation_": "243 m"}}, {"type": "Feature", "geometry": {"type": "Point", "coordinates": [-119.377778, 49.956111]}, "properties": {"Name": "KELOWNA A, BC", "ID": "1123970", "Elevation_": "429 m"}}, {"type": "Feature", "geometry": {"type": "Point", "coordinates": [-119.4835, 49.874167]}, "properties": {"Name": "KELOWNA PC BURNETTS NURSERY, BC", "ID": "1123992", "Elevation_": "349 m"}}, {"type": "Feature", "geometry": {"type": "Point", "coordinates": [-119.544694, 49.179028]}, "properties": {"Name": "OLIVER STP, BC", "ID": "1125766", "Elevation_": "297 m"}}, {"type": "Feature", "geometry": {"type": "Point", "coordinates": [-119.602222, 49.463056]}, "properties": {"Name": "PENTICTON A, BC", "ID": "1126150", "Elevation_": "344 m"}}, {"type": "Feature", "geometry": {"type": "Point", "coordinates": [-120.5125, 49.467778]}, "properties": {"Name": "PRINCETON A, BC", "ID": "1126510", "Elevation_": "701 m"}}, {"type": "Feature", "geometry": {"type": "Point", "coordinates": [-119.283333, 50.233333]}, "properties": {"Name": "VERNON, BC", "ID": "1128551", "Elevation_": "556 m"}}, {"type": "Feature", "geometry": {"type": "Point", "coordinates": [-120.51, 49.465]}, "properties": {"Name": "PRINCETON CS, BC", "ID": "112FN0M", "Elevation_": "696 m"}}, {"type": "Feature", "geometry": {"type": "Point", "coordinates": [-119.648694, 49.562556]}, "properties": {"Name": "SUMMERLAND CS, BC", "ID": "112G8L1", "Elevation_": "454 m"}}, {"type": "Feature", "geometry": {"type": "Point", "coordinates": [-117.6325, 49.296389]}, "properties": {"Name": "CASTLEGAR A, BC", "ID": "1141455", "Elevation_": "495 m"}}, {"type": "Feature", "geometry": {"type": "Point", "coordinates": [-117.774178, 49.343394]}, "properties": {"Name": "CASTLEGAR BCHPA DAM, BC", "ID": "1141457", "Elevation_": "435 m"}}, {"type": "Feature", "geometry": {"type": "Point", "coordinates": [-116.971528, 50.238667]}, "properties": {"Name": "DUNCAN LAKE DAM, BC", "ID": "1142574", "Elevation_": "548 m"}}, {"type": "Feature", "geometry": {"type": "Point", "coordinates": [-118.0675, 49.871944]}, "properties": {"Name": "FAUQUIER, BC", "ID": "1142820", "Elevation_": "490 m"}}, {"type": "Feature", "geometry": {"type": "Point", "coordinates": [-117.817094, 50.269425]}, "properties": {"Name": "NAKUSP CS, BC", "ID": "1145297", "Elevation_": "512 m"}}, {"type": "Feature", "geometry": {"type": "Point", "coordinates": [-117.305278, 49.491389]}, "properties": {"Name": "NELSON CS, BC", "ID": "1145M29", "Elevation_": "534 m"}}, {"type": "Feature", "geometry": {"type": "Point", "coordinates": [-117.728333, 49.195167]}, "properties": {"Name": "TRAIL BIRCHBANK, BC", "ID": "1148211", "Elevation_": "594 m"}}, {"type": "Feature", "geometry": {"type": "Point", "coordinates": [-117.738889, 49.111944]}, "properties": {"Name": "WARFIELD RCS, BC", "ID": "1148705", "Elevation_": "566 m"}}, {"type": "Feature", "geometry": {"type": "Point", "coordinates": [-116.50068, 49.081689]}, "properties": {"Name": "CRESTON CAMPBELL SCIENTIFIC, BC", "ID": "114B1F0", "Elevation_": "640 m"}}, {"type": "Feature", "geometry": {"type": "Point", "coordinates": [-115.781944, 49.612222]}, "properties": {"Name": "CRANBROOK A, BC", "ID": "1152102", "Elevation_": "940 m"}}, {"type": "Feature", "geometry": {"type": "Point", "coordinates": [-115.962278, 49.631583]}, "properties": {"Name": "KIMBERLEY PCC, BC", "ID": "1154203", "Elevation_": "889 m"}}, {"type": "Feature", "geometry": {"type": "Point", "coordinates": [-114.8839, 49.745]}, "properties": {"Name": "SPARWOOD CS, BC", "ID": "1157631", "Elevation_": "1136 m"}}, {"type": "Feature", "geometry": {"type": "Point", "coordinates": [-119.289917, 52.129]}, "properties": {"Name": "BLUE RIVER CS, BC", "ID": "1160H99", "Elevation_": "682 m"}}, {"type": "Feature", "geometry": {"type": "Point", "coordinates": [-120.441944, 50.702222]}, "properties": {"Name": "KAMLOOPS AUT, BC", "ID": "1163842", "Elevation_": "345 m"}}, {"type": "Feature", "geometry": {"type": "Point", "coordinates": [-119.233614, 50.685558]}, "properties": {"Name": "SALMON ARM A, BC", "ID": "1166R45", "Elevation_": "527 m"}}, {"type": "Feature", "geometry": {"type": "Point", "coordinates": [-119.290678, 50.703]}, "properties": {"Name": "SALMON ARM CS, BC", "ID": "116FRMN", "Elevation_": "350 m"}}, {"type": "Feature", "geometry": {"type": "Point", "coordinates": [-116.984333, 51.300222]}, "properties": {"Name": "GOLDEN AIRPORT, BC", "ID": "1173220", "Elevation_": "785 m"}}, {"type": "Feature", "geometry": {"type": "Point", "coordinates": [-118.585278, 52.053056]}, "properties": {"Name": "MICA DAM, BC", "ID": "1175122", "Elevation_": "579 m"}}, {"type": "Feature", "geometry": {"type": "Point", "coordinates": [-118.176278, 50.958222]}, "properties": {"Name": "REVELSTOKE AIRPORT AUTO, BC", "ID": "1176755", "Elevation_": "444 m"}}, {"type": "Feature", "geometry": {"type": "Point", "coordinates": [-119.25, 52.85]}, "properties": {"Name": "VALEMOUNT NORTH, BC", "ID": "1178CL9", "Elevation_": "891 m"}}, {"type": "Feature", "geometry": {"type": "Point", "coordinates": [-116.344556, 51.442889]}, "properties": {"Name": "YOHO PARK, BC", "ID": "11790J1", "Elevation_": "1602 m"}}, {"type": "Feature", "geometry": {"type": "Point", "coordinates": [-116.533333, 51.383333]}, "properties": {"Name": "YOHO NAT PARK BOULDER CR, BC", "ID": "117R00F", "Elevation_": "1219 m"}}, {"type": "Feature", "geometry": {"type": "Point", "coordinates": [-121.626667, 55.687222]}, "properties": {"Name": "CHETWYND A, BC", "ID": "1181508", "Elevation_": "609 m"}}, {"type": "Feature", "geometry": {"type": "Point", "coordinates": [-120.181944, 55.741667]}, "properties": {"Name": "DAWSON CREEK A, BC", "ID": "1182285", "Elevation_": "654 m"}}, {"type": "Feature", "geometry": {"type": "Point", "coordinates": [-120.740278, 56.238056]}, "properties": {"Name": "FORT ST JOHN A, BC", "ID": "1183000", "Elevation_": "694 m"}}, {"type": "Feature", "geometry": {"type": "Point", "coordinates": [-124.701444, 55.785528]}, "properties": {"Name": "GERMANSEN LANDING, BC", "ID": "1183090", "Elevation_": "766 m"}}, {"type": "Feature", "geometry": {"type": "Point", "coordinates": [-122.2, 56.016667]}, "properties": {"Name": "HUDSON HOPE BCHPA DAM, BC", "ID": "1183FL0", "Elevation_": "678 m"}}, {"type": "Feature", "geometry": {"type": "Point", "coordinates": [-123.137802, 55.305289]}, "properties": {"Name": "MACKENZIE AIRPORT AUTO, BC", "ID": "1184793", "Elevation_": "694 m"}}, {"type": "Feature", "geometry": {"type": "Point", "coordinates": [-122.718056, 57.25028]}, "properties": {"Name": "SIKANNI CHIEF, BC", "ID": "1187335", "Elevation_": "937 m"}}, {"type": "Feature", "geometry": {"type": "Point", "coordinates": [-125.633333, 57.433333]}, "properties": {"Name": "WARE, BC", "ID": "1188696", "Elevation_": "777 m"}}, {"type": "Feature", "geometry": {"type": "Point", "coordinates": [-122.597222, 58.836389]}, "properties": {"Name": "FORT NELSON A, BC", "ID": "1192940", "Elevation_": "381 m"}}, {"type": "Feature", "geometry": {"type": "Point", "coordinates": [-125.766667, 58.930001]}, "properties": {"Name": "MUNCHO LAKE, BC", "ID": "1195250", "Elevation_": "836 m"}}, {"type": "Feature", "geometry": {"type": "Point", "coordinates": [-124.235848, 58.653071]}, "properties": {"Name": "TETSA RIVER, BC", "ID": "1195J29", "Elevation_": "810 m"}}, {"type": "Feature", "geometry": {"type": "Point", "coordinates": [-130.025, 58.4261]}, "properties": {"Name": "DEASE LAKE (AUT), BC", "ID": "119BLM0", "Elevation_": "800 m"}}, {"type": "Feature", "geometry": {"type": "Point", "coordinates": [-133.7, 59.566667]}, "properties": {"Name": "ATLIN, BC", "ID": "1200560", "Elevation_": "673 m"}}, {"type": "Feature", "geometry": {"type": "Point", "coordinates": [-136.366667, 59.45]}, "properties": {"Name": "PLEASANT CAMP, BC", "ID": "1206197", "Elevation_": "274 m"}}, {"type": "Feature", "geometry": {"type": "Point", "coordinates": [-131.333333, 57.9]}, "properties": {"Name": "TELEGRAPH CREEK, BC", "ID": "1208041", "Elevation_": "249 m"}}, {"type": "Feature", "geometry": {"type": "Point", "coordinates": [-130.066667, 57.6]}, "properties": {"Name": "TODAGIN RANCH, BC", "ID": "1208202", "Elevation_": "899 m"}}, {"type": "Feature", "geometry": {"type": "Point", "coordinates": [-139.016667, 61.366667]}, "properties": {"Name": "BURWASH AIRPORT AUTO, YT", "ID": "2100184", "Elevation_": "807 m"}}, {"type": "Feature", "geometry": {"type": "Point", "coordinates": [-136.191972, 62.115]}, "properties": {"Name": "CARMACKS CS, YT", "ID": "2100301", "Elevation_": "542 m"}}, {"type": "Feature", "geometry": {"type": "Point", "coordinates": [-137.580279, 60.772502]}, "properties": {"Name": "HAINES JUNCTION, YT", "ID": "2100630", "Elevation_": "595 m"}}, {"type": "Feature", "geometry": {"type": "Point", "coordinates": [-135.866667, 63.616667]}, "properties": {"Name": "MAYO A, YT", "ID": "2100700", "Elevation_": "503 m"}}, {"type": "Feature", "geometry": {"type": "Point", "coordinates": [-139.839167, 67.570556]}, "properties": {"Name": "OLD CROW RCS, YT", "ID": "2100805", "Elevation_": "251 m"}}, {"type": "Feature", "geometry": {"type": "Point", "coordinates": [-137.310835, 62.830002]}, "properties": {"Name": "PELLY RANCH, YT", "ID": "2100880", "Elevation_": "445 m"}}, {"type": "Feature", "geometry": {"type": "Point", "coordinates": [-139.126667, 64.060854]}, "properties": {"Name": "DAWSON, YT", "ID": "2100LRP", "Elevation_": "370 m"}}, {"type": "Feature", "geometry": {"type": "Point", "coordinates": [-132.733333, 60.166667]}, "properties": {"Name": "TESLIN (AUT), YT", "ID": "2101102", "Elevation_": "705 m"}}, {"type": "Feature", "geometry": {"type": "Point", "coordinates": [-128.83195, 60.115839]}, "properties": {"Name": "WATSON LAKE (AUT), YT", "ID": "2101204", "Elevation_": "683 m"}}, {"type": "Feature", "geometry": {"type": "Point", "coordinates": [-135.097778, 60.733056]}, "properties": {"Name": "WHITEHORSE AUTO, YT", "ID": "2101310", "Elevation_": "707 m"}}, {"type": "Feature", "geometry": {"type": "Point", "coordinates": [-123.433353, 65.208636]}, "properties": {"Name": "DELINE CS, NT", "ID": "2201022", "Elevation_": "212 m"}}, {"type": "Feature", "geometry": {"type": "Point", "coordinates": [-123.466667, 60.233333]}, "properties": {"Name": "FORT LIARD, NT", "ID": "2201579", "Elevation_": "213 m"}}, {"type": "Feature", "geometry": {"type": "Point", "coordinates": [-109.168333, 62.711389]}, "properties": {"Name": "FORT RELIANCE (AUT), NT", "ID": "2201903", "Elevation_": "167 m"}}, {"type": "Feature", "geometry": {"type": "Point", "coordinates": [-121.236667, 61.760278]}, "properties": {"Name": "FORT SIMPSON CLIMATE, NT", "ID": "2202102", "Elevation_": "168 m"}}, {"type": "Feature", "geometry": {"type": "Point", "coordinates": [-111.929444, 60.026111]}, "properties": {"Name": "FORT SMITH CLIMATE, NT", "ID": "2202202", "Elevation_": "203 m"}}, {"type": "Feature", "geometry": {"type": "Point", "coordinates": [-115.782778, 60.839722]}, "properties": {"Name": "HAY RIVER A, NT", "ID": "2202401", "Elevation_": "164 m"}}, {"type": "Feature", "geometry": {"type": "Point", "coordinates": [-115.776667, 60.838889]}, "properties": {"Name": "HAY RIVER CLIMATE, NT", "ID": "2202402", "Elevation_": "164 m"}}, {"type": "Feature", "geometry": {"type": "Point", "coordinates": [-133.516667, 68.316667]}, "properties": {"Name": "INUVIK CLIMATE, NT", "ID": "2202578", "Elevation_": "103 m"}}, {"type": "Feature", "geometry": {"type": "Point", "coordinates": [-126.753357, 65.287525]}, "properties": {"Name": "NORMAN WELLS CLIMATE, NT", "ID": "2202810", "Elevation_": "93 m"}}, {"type": "Feature", "geometry": {"type": "Point", "coordinates": [-124.082501, 69.357779]}, "properties": {"Name": "PAULATUK, NT", "ID": "2203058", "Elevation_": "6 m"}}, {"type": "Feature", "geometry": {"type": "Point", "coordinates": [-128.25, 61.95]}, "properties": {"Name": "TUNGSTEN, NT", "ID": "2203922", "Elevation_": "1143 m"}}, {"type": "Feature", "geometry": {"type": "Point", "coordinates": [-114.440278, 62.462778]}, "properties": {"Name": "YELLOWKNIFE A, NT", "ID": "2204100", "Elevation_": "205 m"}}, {"type": "Feature", "geometry": {"type": "Point", "coordinates": [-96.0, 64.316667]}, "properties": {"Name": "BAKER LAKE CLIMATE, NU", "ID": "2300501", "Elevation_": "50 m"}}, {"type": "Feature", "geometry": {"type": "Point", "coordinates": [-115.135278, 67.817223]}, "properties": {"Name": "KUGLUKTUK CLIMATE, NU", "ID": "2300904", "Elevation_": "22 m"}}, {"type": "Feature", "geometry": {"type": "Point", "coordinates": [-83.35, 64.183333]}, "properties": {"Name": "CORAL HARBOUR RCS, NU", "ID": "2301010", "Elevation_": "57 m"}}, {"type": "Feature", "geometry": {"type": "Point", "coordinates": [-94.066667, 61.1]}, "properties": {"Name": "ARVIAT CLIMATE, NU", "ID": "2301153", "Elevation_": "9 m"}}, {"type": "Feature", "geometry": {"type": "Point", "coordinates": [-95.850278, 68.635556]}, "properties": {"Name": "GJOA HAVEN CLIMATE, NU", "ID": "2302340", "Elevation_": "42 m"}}, {"type": "Feature", "geometry": {"type": "Point", "coordinates": [-89.796394, 68.537517]}, "properties": {"Name": "KUGAARUK CLIMATE, NU", "ID": "2303094", "Elevation_": "15 m"}}, {"type": "Feature", "geometry": {"type": "Point", "coordinates": [-92.116667, 62.816667]}, "properties": {"Name": "RANKIN INLET A, NU", "ID": "2303401", "Elevation_": "32 m"}}, {"type": "Feature", "geometry": {"type": "Point", "coordinates": [-64.033444, 67.547417]}, "properties": {"Name": "QIKIQTARJUAQ CLIMATE, NU", "ID": "2400573", "Elevation_": "6 m"}}, {"type": "Feature", "geometry": {"type": "Point", "coordinates": [-105.138333, 69.108056]}, "properties": {"Name": "CAMBRIDGE BAY GSN, NU", "ID": "2400602", "Elevation_": "18 m"}}, {"type": "Feature", "geometry": {"type": "Point", "coordinates": [-76.530444, 64.23075]}, "properties": {"Name": "KINNGAIT, NU", "ID": "2400636", "Elevation_": "50 m"}}, {"type": "Feature", "geometry": {"type": "Point", "coordinates": [-68.516667, 70.483333]}, "properties": {"Name": "CLYDE RIVER CLIMATE, NU", "ID": "2400802", "Elevation_": "26 m"}}, {"type": "Feature", "geometry": {"type": "Point", "coordinates": [-81.243611, 68.776111]}, "properties": {"Name": "SANIRAJAK, NU", "ID": "2402353", "Elevation_": "8 m"}}, {"type": "Feature", "geometry": {"type": "Point", "coordinates": [-68.544444, 63.747222]}, "properties": {"Name": "IQALUIT CLIMATE, NU", "ID": "2402592", "Elevation_": "33 m"}}, {"type": "Feature", "geometry": {"type": "Point", "coordinates": [-65.71125, 66.143417]}, "properties": {"Name": "PANGNIRTUNG, NU", "ID": "2403049", "Elevation_": "22 m"}}, {"type": "Feature", "geometry": {"type": "Point", "coordinates": [-77.9575, 72.693333]}, "properties": {"Name": "POND INLET CLIMATE, NU", "ID": "2403204", "Elevation_": "64 m"}}, {"type": "Feature", "geometry": {"type": "Point", "coordinates": [-117.800001, 70.761389]}, "properties": {"Name": "HOLMAN CS, NT", "ID": "2502505", "Elevation_": "29 m"}}, {"type": "Feature", "geometry": {"type": "Point", "coordinates": [-125.254167, 71.9925]}, "properties": {"Name": "SACHS HARBOUR CLIMATE, NT", "ID": "2503648", "Elevation_": "87 m"}}, {"type": "Feature", "geometry": {"type": "Point", "coordinates": [-112.816667, 53.05]}, "properties": {"Name": "CAMROSE, AB", "ID": "3011240", "Elevation_": "739 m"}}, {"type": "Feature", "geometry": {"type": "Point", "coordinates": [-111.449444, 52.074167]}, "properties": {"Name": "CORONATION CLIMATE, AB", "ID": "3011887", "Elevation_": "791 m"}}, {"type": "Feature", "geometry": {"type": "Point", "coordinates": [-113.605836, 53.306667]}, "properties": {"Name": "EDMONTON INTERNATIONAL CS, AB", "ID": "3012206", "Elevation_": "715 m"}}, {"type": "Feature", "geometry": {"type": "Point", "coordinates": [-113.516669, 53.573058]}, "properties": {"Name": "EDMONTON BLATCHFORD, AB", "ID": "3012209", "Elevation_": "671 m"}}, {"type": "Feature", "geometry": {"type": "Point", "coordinates": [-113.466667, 53.666667]}, "properties": {"Name": "EDMONTON NAMAO A, AB", "ID": "3012210", "Elevation_": "687 m"}}, {"type": "Feature", "geometry": {"type": "Point", "coordinates": [-112.868056, 53.682778]}, "properties": {"Name": "ELK ISLAND NAT PARK, AB", "ID": "3012275", "Elevation_": "716 m"}}, {"type": "Feature", "geometry": {"type": "Point", "coordinates": [-113.55, 53.416667]}, "properties": {"Name": "ELLERSLIE, AB", "ID": "3012295", "Elevation_": "693 m"}}, {"type": "Feature", "geometry": {"type": "Point", "coordinates": [-114.912223, 52.421391]}, "properties": {"Name": "ROCKY MTN HOUSE (AUT), AB", "ID": "3015523", "Elevation_": "988 m"}}, {"type": "Feature", "geometry": {"type": "Point", "coordinates": [-115.126389, 53.143614]}, "properties": {"Name": "VIOLET GROVE CS, AB", "ID": "3016860", "Elevation_": "914 m"}}, {"type": "Feature", "geometry": {"type": "Point", "coordinates": [-112.097779, 53.505279]}, "properties": {"Name": "VEGREVILLE, AB", "ID": "3016GF0", "Elevation_": "639 m"}}, {"type": "Feature", "geometry": {"type": "Point", "coordinates": [-114.108353, 53.547244]}, "properties": {"Name": "EDMONTON STONY PLAIN CS, AB", "ID": "301A001", "Elevation_": "766 m"}}, {"type": "Feature", "geometry": {"type": "Point", "coordinates": [-110.206136, 51.669742]}, "properties": {"Name": "ESTHER 1, AB", "ID": "301B460", "Elevation_": "707 m"}}, {"type": "Feature", "geometry": {"type": "Point", "coordinates": [-111.095557, 52.829446]}, "properties": {"Name": "WAINWRIGHT CFB AIRFIELD 21, AB", "ID": "301S001", "Elevation_": "686 m"}}, {"type": "Feature", "geometry": {"type": "Point", "coordinates": [-112.676667, 51.445278]}, "properties": {"Name": "DRUMHELLER EAST, AB", "ID": "30221LG", "Elevation_": "678 m"}}, {"type": "Feature", "geometry": {"type": "Point", "coordinates": [-113.755835, 52.448891]}, "properties": {"Name": "LACOMBE CDA 2, AB", "ID": "3023722", "Elevation_": "860 m"}}, {"type": "Feature", "geometry": {"type": "Point", "coordinates": [-113.894444, 52.182222]}, "properties": {"Name": "RED DEER REGIONAL A, AB", "ID": "3025481", "Elevation_": "904 m"}}, {"type": "Feature", "geometry": {"type": "Point", "coordinates": [-114.6825, 51.778056]}, "properties": {"Name": "SUNDRE A, AB", "ID": "3026KNQ", "Elevation_": "1114 m"}}, {"type": "Feature", "geometry": {"type": "Point", "coordinates": [-111.848897, 50.555297]}, "properties": {"Name": "BROOKS, AB", "ID": "3030QLP", "Elevation_": "747 m"}}, {"type": "Feature", "geometry": {"type": "Point", "coordinates": [-114.000297, 51.109447]}, "properties": {"Name": "CALGARY INT'L CS, AB", "ID": "3031094", "Elevation_": "1081 m"}}, {"type": "Feature", "geometry": {"type": "Point", "coordinates": [-113.638636, 50.003631]}, "properties": {"Name": "CLARESHOLM, AB", "ID": "3031640", "Elevation_": "1009 m"}}, {"type": "Feature", "geometry": {"type": "Point", "coordinates": [-112.7675, 49.695]}, "properties": {"Name": "LETHBRIDGE CDA, AB", "ID": "3033890", "Elevation_": "910 m"}}, {"type": "Feature", "geometry": {"type": "Point", "coordinates": [-110.71725, 50.025111]}, "properties": {"Name": "MEDICINE HAT RCS, AB", "ID": "3034485", "Elevation_": "715 m"}}, {"type": "Feature", "geometry": {"type": "Point", "coordinates": [-114.004722, 49.521667]}, "properties": {"Name": "PINCHER CREEK CLIMATE, AB", "ID": "3035208", "Elevation_": "1190 m"}}, {"type": "Feature", "geometry": {"type": "Point", "coordinates": [-113.883333, 50.183333]}, "properties": {"Name": "STAVELY AAFC, AB", "ID": "3036099", "Elevation_": "1363 m"}}, {"type": "Feature", "geometry": {"type": "Point", "coordinates": [-112.133333, 50.05]}, "properties": {"Name": "VAUXHALL CDA CS, AB", "ID": "3036682", "Elevation_": "779 m"}}, {"type": "Feature", "geometry": {"type": "Point", "coordinates": [-112.05, 49.133333]}, "properties": {"Name": "MILK RIVER, AB", "ID": "3044533", "Elevation_": "1050 m"}}, {"type": "Feature", "geometry": {"type": "Point", "coordinates": [-110.466667, 49.116667]}, "properties": {"Name": "ONEFOUR CDA, AB", "ID": "3044923", "Elevation_": "935 m"}}, {"type": "Feature", "geometry": {"type": "Point", "coordinates": [-115.552236, 51.193358]}, "properties": {"Name": "BANFF CS, AB", "ID": "3050519", "Elevation_": "1396 m"}}, {"type": "Feature", "geometry": {"type": "Point", "coordinates": [-115.066667, 51.083333]}, "properties": {"Name": "BOW VALLEY, AB", "ID": "3050778", "Elevation_": "1297 m"}}, {"type": "Feature", "geometry": {"type": "Point", "coordinates": [-118.066667, 52.883333]}, "properties": {"Name": "JASPER, AB", "ID": "3053520", "Elevation_": "1062 m"}}, {"type": "Feature", "geometry": {"type": "Point", "coordinates": [-118.029722, 52.926389]}, "properties": {"Name": "JASPER WARDEN, AB", "ID": "3053536", "Elevation_": "1020 m"}}, {"type": "Feature", "geometry": {"type": "Point", "coordinates": [-115.034739, 51.027522]}, "properties": {"Name": "KANANASKIS, AB", "ID": "3053600", "Elevation_": "1391 m"}}, {"type": "Feature", "geometry": {"type": "Point", "coordinates": [-113.808614, 49.131133]}, "properties": {"Name": "WATERTON PARK GATE, AB", "ID": "3056214", "Elevation_": "1289 m"}}, {"type": "Feature", "geometry": {"type": "Point", "coordinates": [-114.4475, 54.094722]}, "properties": {"Name": "BARRHEAD CS, AB", "ID": "3060535", "Elevation_": "648 m"}}, {"type": "Feature", "geometry": {"type": "Point", "coordinates": [-116.453335, 53.58028]}, "properties": {"Name": "EDSON CLIMATE, AB", "ID": "3062246", "Elevation_": "927 m"}}, {"type": "Feature", "geometry": {"type": "Point", "coordinates": [-111.213333, 56.651111]}, "properties": {"Name": "FORT MCMURRAY CS, AB", "ID": "3062696", "Elevation_": "368 m"}}, {"type": "Feature", "geometry": {"type": "Point", "coordinates": [-112.023611, 54.768889]}, "properties": {"Name": "LAC LA BICHE CLIMATE, AB", "ID": "3063686", "Elevation_": "567 m"}}, {"type": "Feature", "geometry": {"type": "Point", "coordinates": [-111.558889, 57.041111]}, "properties": {"Name": "MILDRED LAKE, AB", "ID": "3064528", "Elevation_": "310 m"}}, {"type": "Feature", "geometry": {"type": "Point", "coordinates": [-114.777222, 55.293056]}, "properties": {"Name": "SLAVE LAKE RCS, AB", "ID": "3065997", "Elevation_": "582 m"}}, {"type": "Feature", "geometry": {"type": "Point", "coordinates": [-115.786667, 54.143889]}, "properties": {"Name": "WHITECOURT A, AB", "ID": "3067372", "Elevation_": "782 m"}}, {"type": "Feature", "geometry": {"type": "Point", "coordinates": [-118.3475, 53.385556]}, "properties": {"Name": "WILLOW CREEK 1, AB", "ID": "306GE70", "Elevation_": "1370 m"}}, {"type": "Feature", "geometry": {"type": "Point", "coordinates": [-119.396414, 55.196667]}, "properties": {"Name": "BEAVERLODGE RCS, AB", "ID": "3070600", "Elevation_": "745 m"}}, {"type": "Feature", "geometry": {"type": "Point", "coordinates": [-111.117222, 58.767222]}, "properties": {"Name": "FORT CHIPEWYAN RCS, AB", "ID": "3072659", "Elevation_": "238 m"}}, {"type": "Feature", "geometry": {"type": "Point", "coordinates": [-116.040167, 58.382306]}, "properties": {"Name": "FORT VERMILION, AB", "ID": "3072723", "Elevation_": "289 m"}}, {"type": "Feature", "geometry": {"type": "Point", "coordinates": [-118.885, 55.179722]}, "properties": {"Name": "GRANDE PRAIRIE A, AB", "ID": "3072920", "Elevation_": "669 m"}}, {"type": "Feature", "geometry": {"type": "Point", "coordinates": [-117.164722, 58.621389]}, "properties": {"Name": "HIGH LEVEL A, AB", "ID": "3073146", "Elevation_": "338 m"}}, {"type": "Feature", "geometry": {"type": "Point", "coordinates": [-117.447222, 56.226944]}, "properties": {"Name": "PEACE RIVER A, AB", "ID": "3075040", "Elevation_": "570 m"}}, {"type": "Feature", "geometry": {"type": "Point", "coordinates": [-115.277789, 56.551964]}, "properties": {"Name": "RED EARTH, AB", "ID": "3075488", "Elevation_": "546 m"}}, {"type": "Feature", "geometry": {"type": "Point", "coordinates": [-117.633333, 55.716667]}, "properties": {"Name": "WATINO, AB", "ID": "3077246", "Elevation_": "393 m"}}, {"type": "Feature", "geometry": {"type": "Point", "coordinates": [-113.866472, 58.710833]}, "properties": {"Name": "GARDEN RIVER, AB", "ID": "307KPFP", "Elevation_": "240 m"}}, {"type": "Feature", "geometry": {"type": "Point", "coordinates": [-110.283333, 54.416667]}, "properties": {"Name": "COLD LAKE A, AB", "ID": "3081680", "Elevation_": "541 m"}}, {"type": "Feature", "geometry": {"type": "Point", "coordinates": [-104.71, 50.200556]}, "properties": {"Name": "BRATT'S LAKE CLIMATE, SK", "ID": "4010811", "Elevation_": "580 m"}}, {"type": "Feature", "geometry": {"type": "Point", "coordinates": [-102.570833, 50.368056]}, "properties": {"Name": "BROADVIEW, SK", "ID": "4010879", "Elevation_": "599 m"}}, {"type": "Feature", "geometry": {"type": "Point", "coordinates": [-104.166667, 50.366667]}, "properties": {"Name": "DAVIN 5, SK", "ID": "4012164", "Elevation_": "655 m"}}, {"type": "Feature", "geometry": {"type": "Point", "coordinates": [-102.966667, 49.216667]}, "properties": {"Name": "ESTEVAN, SK", "ID": "4012410", "Elevation_": "580 m"}}, {"type": "Feature", "geometry": {"type": "Point", "coordinates": [-103.65, 50.55]}, "properties": {"Name": "INDIAN HEAD CDA, SK", "ID": "4013480", "Elevation_": "579 m"}}, {"type": "Feature", "geometry": {"type": "Point", "coordinates": [-103.683333, 50.5]}, "properties": {"Name": "INDIAN HEAD PFRA, SK", "ID": "4013490", "Elevation_": "604 m"}}, {"type": "Feature", "geometry": {"type": "Point", "coordinates": [-105.25, 51.416667]}, "properties": {"Name": "LAST MOUNTAIN CS, SK", "ID": "4014156", "Elevation_": "497 m"}}, {"type": "Feature", "geometry": {"type": "Point", "coordinates": [-105.537508, 50.331681]}, "properties": {"Name": "MOOSE JAW CS, SK", "ID": "4015322", "Elevation_": "577 m"}}, {"type": "Feature", "geometry": {"type": "Point", "coordinates": [-105.366667, 49.716667]}, "properties": {"Name": "ORMISTON, SK", "ID": "4015680", "Elevation_": "685 m"}}, {"type": "Feature", "geometry": {"type": "Point", "coordinates": [-104.666667, 50.433333]}, "properties": {"Name": "REGINA RCS, SK", "ID": "4016699", "Elevation_": "577 m"}}, {"type": "Feature", "geometry": {"type": "Point", "coordinates": [-105.4, 51.666667]}, "properties": {"Name": "WATROUS EAST, SK", "ID": "4018642", "Elevation_": "525 m"}}, {"type": "Feature", "geometry": {"type": "Point", "coordinates": [-102.464444, 51.264722]}, "properties": {"Name": "YORKTON, SK", "ID": "4019073", "Elevation_": "498 m"}}, {"type": "Feature", "geometry": {"type": "Point", "coordinates": [-104.2, 51.766667]}, "properties": {"Name": "WYNYARD (AUT), SK", "ID": "40190LN", "Elevation_": "560 m"}}, {"type": "Feature", "geometry": {"type": "Point", "coordinates": [-103.8, 49.7]}, "properties": {"Name": "WEYBURN, SK", "ID": "401HP5R", "Elevation_": "588 m"}}, {"type": "Feature", "geometry": {"type": "Point", "coordinates": [-105.946114, 49.729192]}, "properties": {"Name": "ASSINIBOIA AIRPORT, SK", "ID": "4020286", "Elevation_": "725 m"}}, {"type": "Feature", "geometry": {"type": "Point", "coordinates": [-107.15, 50.95]}, "properties": {"Name": "LUCKY LAKE, SK", "ID": "4024714", "Elevation_": "664 m"}}, {"type": "Feature", "geometry": {"type": "Point", "coordinates": [-109.466128, 49.902514]}, "properties": {"Name": "MAPLE CREEK, SK", "ID": "4024919", "Elevation_": "766 m"}}, {"type": "Feature", "geometry": {"type": "Point", "coordinates": [-107.683333, 50.3]}, "properties": {"Name": "SWIFT CURRENT A, SK", "ID": "4028040", "Elevation_": "816 m"}}, {"type": "Feature", "geometry": {"type": "Point", "coordinates": [-107.733333, 50.266667]}, "properties": {"Name": "SWIFT CURRENT CDA, SK", "ID": "4028060", "Elevation_": "825 m"}}, {"type": "Feature", "geometry": {"type": "Point", "coordinates": [-109.501392, 50.909464]}, "properties": {"Name": "LEADER AIRPORT, SK", "ID": "402DAF0", "Elevation_": "675 m"}}, {"type": "Feature", "geometry": {"type": "Point", "coordinates": [-105.483333, 49.05]}, "properties": {"Name": "CORONACH SPC, SK", "ID": "40318MN", "Elevation_": "756 m"}}, {"type": "Feature", "geometry": {"type": "Point", "coordinates": [-109.514446, 49.640558]}, "properties": {"Name": "CYPRESS HILLS PARK, SK", "ID": "4031999", "Elevation_": "1270 m"}}, {"type": "Feature", "geometry": {"type": "Point", "coordinates": [-108.988625, 49.437781]}, "properties": {"Name": "EASTEND CYPRESS (AUT), SK", "ID": "4032322", "Elevation_": "1079 m"}}, {"type": "Feature", "geometry": {"type": "Point", "coordinates": [-105.979183, 49.167789]}, "properties": {"Name": "ROCKGLEN (AUT), SK", "ID": "4036844", "Elevation_": "917 m"}}, {"type": "Feature", "geometry": {"type": "Point", "coordinates": [-108.416667, 51.316667]}, "properties": {"Name": "BAD LAKE IHD 102, SK", "ID": "404037Q", "Elevation_": "637 m"}}, {"type": "Feature", "geometry": {"type": "Point", "coordinates": [-109.180556, 51.515278]}, "properties": {"Name": "KINDERSLEY A, SK", "ID": "4043901", "Elevation_": "693 m"}}, {"type": "Feature", "geometry": {"type": "Point", "coordinates": [-108.255557, 52.771946]}, "properties": {"Name": "NORTH BATTLEFORD RCS, SK", "ID": "4045607", "Elevation_": "548 m"}}, {"type": "Feature", "geometry": {"type": "Point", "coordinates": [-107.916667, 51.566667]}, "properties": {"Name": "ROSETOWN EAST, SK", "ID": "4046884", "Elevation_": "586 m"}}, {"type": "Feature", "geometry": {"type": "Point", "coordinates": [-108.834723, 52.35974]}, "properties": {"Name": "SCOTT CDA, SK", "ID": "4047240", "Elevation_": "659 m"}}, {"type": "Feature", "geometry": {"type": "Point", "coordinates": [-104.6, 52.816667]}, "properties": {"Name": "MELFORT, SK", "ID": "4055079", "Elevation_": "490 m"}}, {"type": "Feature", "geometry": {"type": "Point", "coordinates": [-107.05, 51.483333]}, "properties": {"Name": "OUTLOOK PFRA, SK", "ID": "4055736", "Elevation_": "541 m"}}, {"type": "Feature", "geometry": {"type": "Point", "coordinates": [-105.666667, 53.216667]}, "properties": {"Name": "PRINCE ALBERT A, SK", "ID": "4056240", "Elevation_": "428 m"}}, {"type": "Feature", "geometry": {"type": "Point", "coordinates": [-106.718889, 52.173611]}, "properties": {"Name": "SASKATOON RCS, SK", "ID": "4057165", "Elevation_": "504 m"}}, {"type": "Feature", "geometry": {"type": "Point", "coordinates": [-106.633333, 52.133333]}, "properties": {"Name": "SASKATOON U OF S, SK", "ID": "4057200", "Elevation_": "515 m"}}, {"type": "Feature", "geometry": {"type": "Point", "coordinates": [-106.683333, 52.116667]}, "properties": {"Name": "SASKATOON WATER TP, SK", "ID": "4057202", "Elevation_": "483 m"}}, {"type": "Feature", "geometry": {"type": "Point", "coordinates": [-108.420558, 55.840558]}, "properties": {"Name": "BUFFALO NARROWS (AUT), SK", "ID": "4060983", "Elevation_": "440 m"}}, {"type": "Feature", "geometry": {"type": "Point", "coordinates": [-109.516667, 58.366667]}, "properties": {"Name": "CLUFF LAKE, SK", "ID": "4061590", "Elevation_": "330 m"}}, {"type": "Feature", "geometry": {"type": "Point", "coordinates": [-103.678056, 58.229167]}, "properties": {"Name": "COLLINS BAY SK, SK", "ID": "4061620", "Elevation_": "412 m"}}, {"type": "Feature", "geometry": {"type": "Point", "coordinates": [-107.133333, 57.35]}, "properties": {"Name": "CREE LAKE, SK", "ID": "4061861", "Elevation_": "494 m"}}, {"type": "Feature", "geometry": {"type": "Point", "coordinates": [-102.35, 55.533333]}, "properties": {"Name": "ISLAND FALLS (AUT), SK", "ID": "4063605", "Elevation_": "297 m"}}, {"type": "Feature", "geometry": {"type": "Point", "coordinates": [-105.6, 57.25]}, "properties": {"Name": "KEY LAKE, SK", "ID": "4063753", "Elevation_": "513 m"}}, {"type": "Feature", "geometry": {"type": "Point", "coordinates": [-105.270286, 55.146394]}, "properties": {"Name": "LA RONGE RCS, SK", "ID": "4064149", "Elevation_": "378 m"}}, {"type": "Feature", "geometry": {"type": "Point", "coordinates": [-109.138333, 54.019722]}, "properties": {"Name": "LOON LAKE RCS, SK", "ID": "4064620", "Elevation_": "545 m"}}, {"type": "Feature", "geometry": {"type": "Point", "coordinates": [-103.283333, 56.333333]}, "properties": {"Name": "SOUTHEND, SK", "ID": "4067655", "Elevation_": "344 m"}}, {"type": "Feature", "geometry": {"type": "Point", "coordinates": [-107.55, 53.366667]}, "properties": {"Name": "SPIRITWOOD WEST, SK", "ID": "4067723", "Elevation_": "584 m"}}, {"type": "Feature", "geometry": {"type": "Point", "coordinates": [-105.833333, 59.25]}, "properties": {"Name": "STONY RAPIDS A, SK", "ID": "4067PR5", "Elevation_": "245 m"}}, {"type": "Feature", "geometry": {"type": "Point", "coordinates": [-106.066667, 53.916667]}, "properties": {"Name": "WASKESIU LAKE, SK", "ID": "4068559", "Elevation_": "569 m"}}, {"type": "Feature", "geometry": {"type": "Point", "coordinates": [-108.516667, 54.133333]}, "properties": {"Name": "MEADOW LAKE, SK", "ID": "406N0NM", "Elevation_": "481 m"}}, {"type": "Feature", "geometry": {"type": "Point", "coordinates": [-108.483333, 59.566667]}, "properties": {"Name": "URANIUM CITY (AUT), SK", "ID": "406QLD0", "Elevation_": "318 m"}}, {"type": "Feature", "geometry": {"type": "Point", "coordinates": [-104.0, 53.333333]}, "properties": {"Name": "NIPAWIN, SK", "ID": "407N51G", "Elevation_": "371 m"}}, {"type": "Feature", "geometry": {"type": "Point", "coordinates": [-102.316667, 52.816667]}, "properties": {"Name": "HUDSON BAY(AUT), SK", "ID": "4083324", "Elevation_": "358 m"}}, {"type": "Feature", "geometry": {"type": "Point", "coordinates": [-99.983333, 49.866667]}, "properties": {"Name": "BRANDON CDA, MB", "ID": "5010485", "Elevation_": "362 m"}}, {"type": "Feature", "geometry": {"type": "Point", "coordinates": [-99.95, 49.9]}, "properties": {"Name": "BRANDON RCS, MB", "ID": "5010490", "Elevation_": "409 m"}}, {"type": "Feature", "geometry": {"type": "Point", "coordinates": [-99.357444, 49.905806]}, "properties": {"Name": "CARBERRY CS, MB", "ID": "5010547", "Elevation_": "383 m"}}, {"type": "Feature", "geometry": {"type": "Point", "coordinates": [-99.073889, 49.562222]}, "properties": {"Name": "CYPRESS RIVER RCS, MB", "ID": "5010641", "Elevation_": "374 m"}}, {"type": "Feature", "geometry": {"type": "Point", "coordinates": [-98.284139, 49.903139]}, "properties": {"Name": "PORTAGE SOUTHPORT, MB", "ID": "5012324", "Elevation_": "272 m"}}, {"type": "Feature", "geometry": {"type": "Point", "coordinates": [-101.362797, 51.183338]}, "properties": {"Name": "ROBLIN, MB", "ID": "5012469", "Elevation_": "539 m"}}, {"type": "Feature", "geometry": {"type": "Point", "coordinates": [-100.6035, 50.454889]}, "properties": {"Name": "SHOAL LAKE CS, MB", "ID": "5012654", "Elevation_": "561 m"}}, {"type": "Feature", "geometry": {"type": "Point", "coordinates": [-99.941947, 50.655002]}, "properties": {"Name": "WASAGAMING, MB", "ID": "5013117", "Elevation_": "627 m"}}, {"type": "Feature", "geometry": {"type": "Point", "coordinates": [-100.986361, 49.281278]}, "properties": {"Name": "MELITA, MB", "ID": "501A7AR", "Elevation_": "445 m"}}, {"type": "Feature", "geometry": {"type": "Point", "coordinates": [-98.31925, 49.399833]}, "properties": {"Name": "DEERWOOD RCS, MB", "ID": "5020725", "Elevation_": "341 m"}}, {"type": "Feature", "geometry": {"type": "Point", "coordinates": [-97.2375, 49.0]}, "properties": {"Name": "EMERSON AUTO, MB", "ID": "5020881", "Elevation_": "242 m"}}, {"type": "Feature", "geometry": {"type": "Point", "coordinates": [-97.116667, 49.65]}, "properties": {"Name": "GLENLEA, MB", "ID": "5021054", "Elevation_": "234 m"}}, {"type": "Feature", "geometry": {"type": "Point", "coordinates": [-97.560001, 49.030834]}, "properties": {"Name": "GRETNA (AUT), MB", "ID": "5021220", "Elevation_": "252 m"}}, {"type": "Feature", "geometry": {"type": "Point", "coordinates": [-98.25, 49.45]}, "properties": {"Name": "MIAMI THIESSEN, MB", "ID": "5021737", "Elevation_": "297 m"}}, {"type": "Feature", "geometry": {"type": "Point", "coordinates": [-98.083944, 49.187639]}, "properties": {"Name": "MORDEN CDA CS, MB", "ID": "5021849", "Elevation_": "297 m"}}, {"type": "Feature", "geometry": {"type": "Point", "coordinates": [-98.904861, 49.191028]}, "properties": {"Name": "PILOT MOUND (AUT), MB", "ID": "5022125", "Elevation_": "470 m"}}, {"type": "Feature", "geometry": {"type": "Point", "coordinates": [-97.033333, 50.05]}, "properties": {"Name": "ST ANDREWS A, MB", "ID": "50225DP", "Elevation_": "231 m"}}, {"type": "Feature", "geometry": {"type": "Point", "coordinates": [-95.598336, 49.023611]}, "properties": {"Name": "SPRAGUE, MB", "ID": "5022759", "Elevation_": "328 m"}}, {"type": "Feature", "geometry": {"type": "Point", "coordinates": [-97.1, 49.95]}, "properties": {"Name": "WINNIPEG STP, MB", "ID": "5023261", "Elevation_": "232 m"}}, {"type": "Feature", "geometry": {"type": "Point", "coordinates": [-97.129446, 49.888336]}, "properties": {"Name": "WINNIPEG THE FORKS, MB", "ID": "5023262", "Elevation_": "230 m"}}, {"type": "Feature", "geometry": {"type": "Point", "coordinates": [-98.02975, 49.498111]}, "properties": {"Name": "CARMAN U OF M CS, MB", "ID": "502I001", "Elevation_": "268 m"}}, {"type": "Feature", "geometry": {"type": "Point", "coordinates": [-97.249444, 49.916667]}, "properties": {"Name": "WINNIPEG A CS, MB", "ID": "502S001", "Elevation_": "238 m"}}, {"type": "Feature", "geometry": {"type": "Point", "coordinates": [-97.021953, 52.359737]}, "properties": {"Name": "BERENS RIVER CS, MB", "ID": "5030203", "Elevation_": "221 m"}}, {"type": "Feature", "geometry": {"type": "Point", "coordinates": [-95.7, 51.033333]}, "properties": {"Name": "BISSETT, MB", "ID": "5030282", "Elevation_": "259 m"}}, {"type": "Feature", "geometry": {"type": "Point", "coordinates": [-97.5545, 51.083361]}, "properties": {"Name": "FISHER BRANCH (AUT), MB", "ID": "50309J6", "Elevation_": "253 m"}}, {"type": "Feature", "geometry": {"type": "Point", "coordinates": [-97.05, 50.633333]}, "properties": {"Name": "GIMLI CLIMATE, MB", "ID": "5031042", "Elevation_": "230 m"}}, {"type": "Feature", "geometry": {"type": "Point", "coordinates": [-95.197222, 49.623889]}, "properties": {"Name": "INDIAN BAY, MB", "ID": "5031320", "Elevation_": "326 m"}}, {"type": "Feature", "geometry": {"type": "Point", "coordinates": [-99.267805, 53.186407]}, "properties": {"Name": "GRAND RAPIDS (AUT), MB", "ID": "5031A10", "Elevation_": "222 m"}}, {"type": "Feature", "geometry": {"type": "Point", "coordinates": [-96.064722, 50.177228]}, "properties": {"Name": "PINAWA, MB", "ID": "503B1ER", "Elevation_": "268 m"}}, {"type": "Feature", "geometry": {"type": "Point", "coordinates": [-100.056889, 51.100389]}, "properties": {"Name": "DAUPHIN CS, MB", "ID": "5040681", "Elevation_": "304 m"}}, {"type": "Feature", "geometry": {"type": "Point", "coordinates": [-99.466667, 50.216667]}, "properties": {"Name": "NEEPAWA WATER, MB", "ID": "5042005", "Elevation_": "358 m"}}, {"type": "Feature", "geometry": {"type": "Point", "coordinates": [-99.530001, 50.711945]}, "properties": {"Name": "MCCREARY, MB", "ID": "5043158", "Elevation_": "351 m"}}, {"type": "Feature", "geometry": {"type": "Point", "coordinates": [-101.232917, 52.114972]}, "properties": {"Name": "SWAN RIVER RCS, MB", "ID": "504K80K", "Elevation_": "334 m"}}, {"type": "Feature", "geometry": {"type": "Point", "coordinates": [-101.683333, 54.683333]}, "properties": {"Name": "FLIN FLON, MB", "ID": "5050919", "Elevation_": "303 m"}}, {"type": "Feature", "geometry": {"type": "Point", "coordinates": [-101.1, 53.966667]}, "properties": {"Name": "THE PAS CLIMATE, MB", "ID": "5052890", "Elevation_": "274 m"}}, {"type": "Feature", "geometry": {"type": "Point", "coordinates": [-94.066667, 58.733333]}, "properties": {"Name": "CHURCHILL CLIMATE, MB", "ID": "5060608", "Elevation_": "28 m"}}, {"type": "Feature", "geometry": {"type": "Point", "coordinates": [-94.704173, 56.358897]}, "properties": {"Name": "GILLAM, MB", "ID": "5060999", "Elevation_": "145 m"}}, {"type": "Feature", "geometry": {"type": "Point", "coordinates": [-94.65, 53.85]}, "properties": {"Name": "ISLAND LAKE A, MB", "ID": "5061376", "Elevation_": "235 m"}}, {"type": "Feature", "geometry": {"type": "Point", "coordinates": [-96.509722, 56.0375]}, "properties": {"Name": "KELSEY DAM CS, MB", "ID": "5061422", "Elevation_": "182 m"}}, {"type": "Feature", "geometry": {"type": "Point", "coordinates": [-101.066668, 56.850117]}, "properties": {"Name": "LYNN LAKE RCS, MB", "ID": "5061649", "Elevation_": "354 m"}}, {"type": "Feature", "geometry": {"type": "Point", "coordinates": [-97.8625, 55.804722]}, "properties": {"Name": "THOMPSON A, MB", "ID": "5062921", "Elevation_": "224 m"}}, {"type": "Feature", "geometry": {"type": "Point", "coordinates": [-97.8, 54.0]}, "properties": {"Name": "NORWAY HOUSE FORESTRY, MB", "ID": "506B0M7", "Elevation_": "217 m"}}, {"type": "Feature", "geometry": {"type": "Point", "coordinates": [-89.866667, 53.833333]}, "properties": {"Name": "BIG TROUT LAKE, ON", "ID": "6010738", "Elevation_": "224 m"}}, {"type": "Feature", "geometry": {"type": "Point", "coordinates": [-93.221389, 50.630556]}, "properties": {"Name": "EAR FALLS (AUT), ON", "ID": "6012199", "Elevation_": "362 m"}}, {"type": "Feature", "geometry": {"type": "Point", "coordinates": [-87.936111, 52.196111]}, "properties": {"Name": "LANSDOWNE HOUSE (AUT), ON", "ID": "6014353", "Elevation_": "253 m"}}, {"type": "Feature", "geometry": {"type": "Point", "coordinates": [-85.433333, 54.983333]}, "properties": {"Name": "PEAWANUCK (AUT), ON", "ID": "6016295", "Elevation_": "52 m"}}, {"type": "Feature", "geometry": {"type": "Point", "coordinates": [-90.21778, 51.449167]}, "properties": {"Name": "PICKLE LAKE (AUT), ON", "ID": "6016525", "Elevation_": "390 m"}}, {"type": "Feature", "geometry": {"type": "Point", "coordinates": [-93.793056, 51.066944]}, "properties": {"Name": "RED LAKE A, ON", "ID": "6016975", "Elevation_": "385 m"}}, {"type": "Feature", "geometry": {"type": "Point", "coordinates": [-91.628056, 48.761111]}, "properties": {"Name": "ATIKOKAN (AUT), ON", "ID": "6020LPQ", "Elevation_": "389 m"}}, {"type": "Feature", "geometry": {"type": "Point", "coordinates": [-93.438889, 48.651111]}, "properties": {"Name": "FORT FRANCES RCS, ON", "ID": "6022474", "Elevation_": "342 m"}}, {"type": "Feature", "geometry": {"type": "Point", "coordinates": [-94.377778, 49.790556]}, "properties": {"Name": "KENORA RCS, ON", "ID": "6034073", "Elevation_": "412 m"}}, {"type": "Feature", "geometry": {"type": "Point", "coordinates": [-93.732778, 49.664167]}, "properties": {"Name": "RAWSON LAKE (AUT), ON", "ID": "6036907", "Elevation_": "435 m"}}, {"type": "Feature", "geometry": {"type": "Point", "coordinates": [-91.9, 50.116667]}, "properties": {"Name": "SIOUX LOOKOUT A, ON", "ID": "6037775", "Elevation_": "383 m"}}, {"type": "Feature", "geometry": {"type": "Point", "coordinates": [-88.905278, 50.293611]}, "properties": {"Name": "ARMSTRONG (AUT), ON", "ID": "6040325", "Elevation_": "322 m"}}, {"type": "Feature", "geometry": {"type": "Point", "coordinates": [-88.344722, 49.153889]}, "properties": {"Name": "CAMERON FALLS (AUT), ON", "ID": "6041110", "Elevation_": "232 m"}}, {"type": "Feature", "geometry": {"type": "Point", "coordinates": [-85.833333, 47.333333]}, "properties": {"Name": "CARIBOU ISLAND, ON", "ID": "6041221", "Elevation_": "186 m"}}, {"type": "Feature", "geometry": {"type": "Point", "coordinates": [-86.930569, 49.782803]}, "properties": {"Name": "GERALDTON A, ON", "ID": "6042716", "Elevation_": "348 m"}}, {"type": "Feature", "geometry": {"type": "Point", "coordinates": [-86.3, 48.6]}, "properties": {"Name": "PUKASKWA NATL PARK, ON", "ID": "6046770", "Elevation_": "192 m"}}, {"type": "Feature", "geometry": {"type": "Point", "coordinates": [-86.995833, 48.621111]}, "properties": {"Name": "SLATE ISLAND, ON", "ID": "6047810", "Elevation_": "185 m"}}, {"type": "Feature", "geometry": {"type": "Point", "coordinates": [-89.327222, 48.369444]}, "properties": {"Name": "THUNDER BAY CS, ON", "ID": "6048268", "Elevation_": "199 m"}}, {"type": "Feature", "geometry": {"type": "Point", "coordinates": [-90.466667, 49.033333]}, "properties": {"Name": "UPSALA (AUT), ON", "ID": "6049095", "Elevation_": "488 m"}}, {"type": "Feature", "geometry": {"type": "Point", "coordinates": [-82.561389, 46.351389]}, "properties": {"Name": "ELLIOT LAKE A, ON", "ID": "6052259", "Elevation_": "331 m"}}, {"type": "Feature", "geometry": {"type": "Point", "coordinates": [-83.383333, 46.433333]}, "properties": {"Name": "MISSISSAGI ONT HYDRO, ON", "ID": "6055210", "Elevation_": "225 m"}}, {"type": "Feature", "geometry": {"type": "Point", "coordinates": [-83.5, 46.333333]}, "properties": {"Name": "RAYNER, ON", "ID": "6056907", "Elevation_": "243 m"}}, {"type": "Feature", "geometry": {"type": "Point", "coordinates": [-84.509444, 46.483333]}, "properties": {"Name": "SAULT STE MARIE A, ON", "ID": "6057592", "Elevation_": "192 m"}}, {"type": "Feature", "geometry": {"type": "Point", "coordinates": [-84.783333, 47.966667]}, "properties": {"Name": "WAWA (AUT), ON", "ID": "6059408", "Elevation_": "287 m"}}, {"type": "Feature", "geometry": {"type": "Point", "coordinates": [-85.283333, 48.6]}, "properties": {"Name": "WHITE RIVER, ON", "ID": "6059475", "Elevation_": "378 m"}}, {"type": "Feature", "geometry": {"type": "Point", "coordinates": [-83.346667, 47.82]}, "properties": {"Name": "CHAPLEAU A, ON", "ID": "6061361", "Elevation_": "448 m"}}, {"type": "Feature", "geometry": {"type": "Point", "coordinates": [-80.796133, 46.632247]}, "properties": {"Name": "SUDBURY CLIMATE, ON", "ID": "6068145", "Elevation_": "348 m"}}, {"type": "Feature", "geometry": {"type": "Point", "coordinates": [-81.0, 46.466667]}, "properties": {"Name": "SUDBURY SCIENCE NORTH, ON", "ID": "6068158", "Elevation_": "263 m"}}, {"type": "Feature", "geometry": {"type": "Point", "coordinates": [-79.848889, 47.695]}, "properties": {"Name": "EARLTON CLIMATE, ON", "ID": "6072230", "Elevation_": "243 m"}}, {"type": "Feature", "geometry": {"type": "Point", "coordinates": [-82.443611, 49.406389]}, "properties": {"Name": "KAPUSKASING CDA ON, ON", "ID": "6073980", "Elevation_": "218 m"}}, {"type": "Feature", "geometry": {"type": "Point", "coordinates": [-80.0, 48.15]}, "properties": {"Name": "KIRKLAND LAKE CS, ON", "ID": "6074211", "Elevation_": "324 m"}}, {"type": "Feature", "geometry": {"type": "Point", "coordinates": [-80.618056, 51.291667]}, "properties": {"Name": "MOOSONEE RCS, ON", "ID": "6075435", "Elevation_": "9 m"}}, {"type": "Feature", "geometry": {"type": "Point", "coordinates": [-84.163694, 49.746833]}, "properties": {"Name": "NAGAGAMI (AUT), ON", "ID": "6075543", "Elevation_": "264 m"}}, {"type": "Feature", "geometry": {"type": "Point", "coordinates": [-81.6, 49.85]}, "properties": {"Name": "PINARD, ON", "ID": "6076540", "Elevation_": "231 m"}}, {"type": "Feature", "geometry": {"type": "Point", "coordinates": [-81.390278, 48.557222]}, "properties": {"Name": "TIMMINS CLIMATE, ON", "ID": "6078282", "Elevation_": "294 m"}}, {"type": "Feature", "geometry": {"type": "Point", "coordinates": [-79.583333, 47.25]}, "properties": {"Name": "UPPER NOTCH, ON", "ID": "6079068", "Elevation_": "240 m"}}, {"type": "Feature", "geometry": {"type": "Point", "coordinates": [-78.266667, 45.533333]}, "properties": {"Name": "ALGONQUIN PARK EAST GATE, ON", "ID": "6080192", "Elevation_": "397 m"}}, {"type": "Feature", "geometry": {"type": "Point", "coordinates": [-78.733333, 46.366667]}, "properties": {"Name": "LA CAVE, ON", "ID": "6084278", "Elevation_": "172 m"}}, {"type": "Feature", "geometry": {"type": "Point", "coordinates": [-78.066667, 45.95]}, "properties": {"Name": "LAKE TRAVERSE, ON", "ID": "6084307", "Elevation_": "236 m"}}, {"type": "Feature", "geometry": {"type": "Point", "coordinates": [-79.422778, 46.363611]}, "properties": {"Name": "NORTH BAY A, ON", "ID": "6085700", "Elevation_": "370 m"}}, {"type": "Feature", "geometry": {"type": "Point", "coordinates": [-82.566667, 45.883333]}, "properties": {"Name": "GORE BAY CLIMATE, ON", "ID": "6092920", "Elevation_": "188 m"}}, {"type": "Feature", "geometry": {"type": "Point", "coordinates": [-82.966667, 45.65]}, "properties": {"Name": "GREAT DUCK ISLAND, ON", "ID": "6093004", "Elevation_": "182 m"}}, {"type": "Feature", "geometry": {"type": "Point", "coordinates": [-76.112805, 45.18584]}, "properties": {"Name": "APPLETON, ON", "ID": "6100285", "Elevation_": "133 m"}}, {"type": "Feature", "geometry": {"type": "Point", "coordinates": [-77.8, 45.416667]}, "properties": {"Name": "BARK LAKE DAM, ON", "ID": "6100493", "Elevation_": "335 m"}}, {"type": "Feature", "geometry": {"type": "Point", "coordinates": [-75.748333, 44.635278]}, "properties": {"Name": "BROCKVILLE CLIMATE, ON", "ID": "6100970", "Elevation_": "120 m"}}, {"type": "Feature", "geometry": {"type": "Point", "coordinates": [-75.666667, 44.6]}, "properties": {"Name": "BROCKVILLE PCC, ON", "ID": "6100971", "Elevation_": "96 m"}}, {"type": "Feature", "geometry": {"type": "Point", "coordinates": [-77.616667, 45.366667]}, "properties": {"Name": "COMBERMERE, ON", "ID": "6101820", "Elevation_": "286 m"}}, {"type": "Feature", "geometry": {"type": "Point", "coordinates": [-74.7489, 45.015578]}, "properties": {"Name": "CORNWALL, ON", "ID": "6101874", "Elevation_": "64 m"}}, {"type": "Feature", "geometry": {"type": "Point", "coordinates": [-74.8, 45.033333]}, "properties": {"Name": "CORNWALL ONT HYDRO, ON", "ID": "6101901", "Elevation_": "76 m"}}, {"type": "Feature", "geometry": {"type": "Point", "coordinates": [-75.85, 44.416667]}, "properties": {"Name": "GRENADIER ISLAND, ON", "ID": "6103024", "Elevation_": "82 m"}}, {"type": "Feature", "geometry": {"type": "Point", "coordinates": [-75.633333, 45.0]}, "properties": {"Name": "KEMPTVILLE CS, ON", "ID": "6104027", "Elevation_": "99 m"}}, {"type": "Feature", "geometry": {"type": "Point", "coordinates": [-76.599444, 44.223333]}, "properties": {"Name": "KINGSTON CLIMATE, ON", "ID": "6104142", "Elevation_": "93 m"}}, {"type": "Feature", "geometry": {"type": "Point", "coordinates": [-76.480567, 44.243903]}, "properties": {"Name": "KINGSTON PUMPING STATION, ON", "ID": "6104175", "Elevation_": "76 m"}}, {"type": "Feature", "geometry": {"type": "Point", "coordinates": [-75.716667, 45.383333]}, "properties": {"Name": "OTTAWA CDA RCS, ON", "ID": "6105978", "Elevation_": "79 m"}}, {"type": "Feature", "geometry": {"type": "Point", "coordinates": [-75.669167, 45.3225]}, "properties": {"Name": "OTTAWA MACDONALD-CARTIER INT'L A, ON", "ID": "6106000", "Elevation_": "114 m"}}, {"type": "Feature", "geometry": {"type": "Point", "coordinates": [-77.252222, 45.860278]}, "properties": {"Name": "PEMBROKE CLIMATE, ON", "ID": "6106367", "Elevation_": "161 m"}}, {"type": "Feature", "geometry": {"type": "Point", "coordinates": [-77.433333, 45.983333]}, "properties": {"Name": "PETAWAWA NAT FORESTRY, ON", "ID": "6106400", "Elevation_": "183 m"}}, {"type": "Feature", "geometry": {"type": "Point", "coordinates": [-76.0, 44.883333]}, "properties": {"Name": "SMITHS FALLS TS, ON", "ID": "6107836", "Elevation_": "114 m"}}, {"type": "Feature", "geometry": {"type": "Point", "coordinates": [-79.689725, 44.375837]}, "properties": {"Name": "BARRIE WPCC, ON", "ID": "6110557", "Elevation_": "221 m"}}, {"type": "Feature", "geometry": {"type": "Point", "coordinates": [-79.402778, 45.140278]}, "properties": {"Name": "BEATRICE CLIMATE, ON", "ID": "6110607", "Elevation_": "297 m"}}, {"type": "Feature", "geometry": {"type": "Point", "coordinates": [-79.866667, 44.85]}, "properties": {"Name": "BEAUSOLEIL, ON", "ID": "6110617", "Elevation_": "183 m"}}, {"type": "Feature", "geometry": {"type": "Point", "coordinates": [-80.216667, 44.5]}, "properties": {"Name": "COLLINGWOOD, ON", "ID": "6111792", "Elevation_": "179 m"}}, {"type": "Feature", "geometry": {"type": "Point", "coordinates": [-78.933333, 45.216667]}, "properties": {"Name": "DORSET MOE, ON", "ID": "6112072", "Elevation_": "323 m"}}, {"type": "Feature", "geometry": {"type": "Point", "coordinates": [-79.3, 44.966667]}, "properties": {"Name": "MUSKOKA A, ON", "ID": "6115525", "Elevation_": "281 m"}}, {"type": "Feature", "geometry": {"type": "Point", "coordinates": [-79.438889, 44.602778]}, "properties": {"Name": "ORILLIA BRAIN, ON", "ID": "6115811", "Elevation_": "250 m"}}, {"type": "Feature", "geometry": {"type": "Point", "coordinates": [-80.933333, 44.583333]}, "properties": {"Name": "OWEN SOUND MOE, ON", "ID": "6116132", "Elevation_": "178 m"}}, {"type": "Feature", "geometry": {"type": "Point", "coordinates": [-80.044167, 45.344167]}, "properties": {"Name": "PARRY SOUND CCG, ON", "ID": "6116257", "Elevation_": "176 m"}}, {"type": "Feature", "geometry": {"type": "Point", "coordinates": [-79.683333, 45.016667]}, "properties": {"Name": "RAGGED RAPIDS, ON", "ID": "6116843", "Elevation_": "228 m"}}, {"type": "Feature", "geometry": {"type": "Point", "coordinates": [-79.55, 44.483333]}, "properties": {"Name": "BARRIE-ORO, ON", "ID": "6117700", "Elevation_": "289 m"}}, {"type": "Feature", "geometry": {"type": "Point", "coordinates": [-79.35, 45.2]}, "properties": {"Name": "UTTERSON ONT HYDRO, ON", "ID": "6119115", "Elevation_": "297 m"}}, {"type": "Feature", "geometry": {"type": "Point", "coordinates": [-81.107222, 44.745833]}, "properties": {"Name": "WIARTON A, ON", "ID": "6119500", "Elevation_": "222 m"}}, {"type": "Feature", "geometry": {"type": "Point", "coordinates": [-79.783333, 44.233333]}, "properties": {"Name": "EGBERT CS, ON", "ID": "611E001", "Elevation_": "251 m"}}, {"type": "Feature", "geometry": {"type": "Point", "coordinates": [-81.733333, 45.333333]}, "properties": {"Name": "COVE ISLAND, ON", "ID": "6121912", "Elevation_": "179 m"}}, {"type": "Feature", "geometry": {"type": "Point", "coordinates": [-81.716667, 43.766667]}, "properties": {"Name": "GODERICH, ON", "ID": "6122847", "Elevation_": "213 m"}}, {"type": "Feature", "geometry": {"type": "Point", "coordinates": [-82.3, 43.0]}, "properties": {"Name": "SARNIA CLIMATE, ON", "ID": "6127519", "Elevation_": "181 m"}}, {"type": "Feature", "geometry": {"type": "Point", "coordinates": [-81.633333, 45.233333]}, "properties": {"Name": "TOBERMORY RCS, ON", "ID": "6128330", "Elevation_": "213 m"}}, {"type": "Feature", "geometry": {"type": "Point", "coordinates": [-82.21528, 42.390007]}, "properties": {"Name": "CHATHAM WPCP, ON", "ID": "6131415", "Elevation_": "180 m"}}, {"type": "Feature", "geometry": {"type": "Point", "coordinates": [-80.55, 42.866667]}, "properties": {"Name": "DELHI CS, ON", "ID": "6131983", "Elevation_": "231 m"}}, {"type": "Feature", "geometry": {"type": "Point", "coordinates": [-82.9, 42.033333]}, "properties": {"Name": "HARROW CDA AUTO, ON", "ID": "6133362", "Elevation_": "191 m"}}, {"type": "Feature", "geometry": {"type": "Point", "coordinates": [-80.05, 42.55]}, "properties": {"Name": "LONG POINT, ON", "ID": "6134610", "Elevation_": "175 m"}}, {"type": "Feature", "geometry": {"type": "Point", "coordinates": [-79.083333, 43.133333]}, "properties": {"Name": "NIAGARA FALLS, ON", "ID": "6135638", "Elevation_": "182 m"}}, {"type": "Feature", "geometry": {"type": "Point", "coordinates": [-80.883333, 42.783333]}, "properties": {"Name": "PORT WELLER (AUT), ON", "ID": "6136699", "Elevation_": "79 m"}}, {"type": "Feature", "geometry": {"type": "Point", "coordinates": [-81.883333, 42.45]}, "properties": {"Name": "RIDGETOWN RCS, ON", "ID": "6137154", "Elevation_": "205 m"}}, {"type": "Feature", "geometry": {"type": "Point", "coordinates": [-79.166667, 43.2]}, "properties": {"Name": "ST CATHARINES A, ON", "ID": "6137287", "Elevation_": "97 m"}}, {"type": "Feature", "geometry": {"type": "Point", "coordinates": [-81.205012, 42.768335]}, "properties": {"Name": "ST THOMAS WPCP, ON", "ID": "6137362", "Elevation_": "209 m"}}, {"type": "Feature", "geometry": {"type": "Point", "coordinates": [-80.266667, 42.85]}, "properties": {"Name": "SIMCOE, ON", "ID": "6137730", "Elevation_": "240 m"}}, {"type": "Feature", "geometry": {"type": "Point", "coordinates": [-79.4, 43.183333]}, "properties": {"Name": "VINELAND STATION RCS, ON", "ID": "6139148", "Elevation_": "79 m"}}, {"type": "Feature", "geometry": {"type": "Point", "coordinates": [-79.333333, 42.966667]}, "properties": {"Name": "WELLAND-PELHAM, ON", "ID": "6139449", "Elevation_": "178 m"}}, {"type": "Feature", "geometry": {"type": "Point", "coordinates": [-82.955556, 42.275556]}, "properties": {"Name": "WINDSOR A, ON", "ID": "6139525", "Elevation_": "189 m"}}, {"type": "Feature", "geometry": {"type": "Point", "coordinates": [-83.066667, 42.3]}, "properties": {"Name": "WINDSOR UNIVERSITY, ON", "ID": "6139538", "Elevation_": "179 m"}}, {"type": "Feature", "geometry": {"type": "Point", "coordinates": [-79.25, 42.866667]}, "properties": {"Name": "PORT COLBORNE (AUT), ON", "ID": "613F606", "Elevation_": "183 m"}}, {"type": "Feature", "geometry": {"type": "Point", "coordinates": [-82.518889, 41.948614]}, "properties": {"Name": "POINT PELEE CS, ON", "ID": "613P001", "Elevation_": "176 m"}}, {"type": "Feature", "geometry": {"type": "Point", "coordinates": [-80.116667, 43.633333]}, "properties": {"Name": "BLUE SPRINGS CREEK, ON", "ID": "6140818", "Elevation_": "373 m"}}, {"type": "Feature", "geometry": {"type": "Point", "coordinates": [-80.331389, 43.1375]}, "properties": {"Name": "BRANTFORD AIRPORT, ON", "ID": "6140942", "Elevation_": "245 m"}}, {"type": "Feature", "geometry": {"type": "Point", "coordinates": [-80.316667, 43.333333]}, "properties": {"Name": "CAMBRIDGE GALT MOE, ON", "ID": "6141095", "Elevation_": "268 m"}}, {"type": "Feature", "geometry": {"type": "Point", "coordinates": [-80.416667, 43.65]}, "properties": {"Name": "ELORA RCS, ON", "ID": "6142286", "Elevation_": "376 m"}}, {"type": "Feature", "geometry": {"type": "Point", "coordinates": [-80.330305, 43.734747]}, "properties": {"Name": "FERGUS SHAND DAM, ON", "ID": "6142400", "Elevation_": "417 m"}}, {"type": "Feature", "geometry": {"type": "Point", "coordinates": [-80.710302, 43.683905]}, "properties": {"Name": "GLEN ALLAN, ON", "ID": "6142803", "Elevation_": "400 m"}}, {"type": "Feature", "geometry": {"type": "Point", "coordinates": [-80.333333, 43.883333]}, "properties": {"Name": "GRAND VALLEY WPCP, ON", "ID": "6142991", "Elevation_": "464 m"}}, {"type": "Feature", "geometry": {"type": "Point", "coordinates": [-80.3, 43.533333]}, "properties": {"Name": "GUELPH SMALLFIELD FARM, ON", "ID": "6143087", "Elevation_": "344 m"}}, {"type": "Feature", "geometry": {"type": "Point", "coordinates": [-80.216667, 43.55]}, "properties": {"Name": "GUELPH TURFGRASS, ON", "ID": "6143089", "Elevation_": "325 m"}}, {"type": "Feature", "geometry": {"type": "Point", "coordinates": [-80.483333, 43.45]}, "properties": {"Name": "KITCHENER CITY ENG 2, ON", "ID": "6144241", "Elevation_": "320 m"}}, {"type": "Feature", "geometry": {"type": "Point", "coordinates": [-81.15, 43.033333]}, "properties": {"Name": "LONDON CS, ON", "ID": "6144478", "Elevation_": "278 m"}}, {"type": "Feature", "geometry": {"type": "Point", "coordinates": [-80.75, 43.983333]}, "properties": {"Name": "MOUNT FOREST (AUT), ON", "ID": "6145504", "Elevation_": "414 m"}}, {"type": "Feature", "geometry": {"type": "Point", "coordinates": [-80.35, 43.383333]}, "properties": {"Name": "PRESTON WPCP, ON", "ID": "6146714", "Elevation_": "272 m"}}, {"type": "Feature", "geometry": {"type": "Point", "coordinates": [-81.233333, 43.216667]}, "properties": {"Name": "PROSPECT HILL, ON", "ID": "6146745", "Elevation_": "312 m"}}, {"type": "Feature", "geometry": {"type": "Point", "coordinates": [-81.004738, 43.368893]}, "properties": {"Name": "STRATFORD WWTP, ON", "ID": "6148105", "Elevation_": "345 m"}}, {"type": "Feature", "geometry": {"type": "Point", "coordinates": [-80.383333, 43.45]}, "properties": {"Name": "WATERLOO WELLINGTON A, ON", "ID": "6149387", "Elevation_": "317 m"}}, {"type": "Feature", "geometry": {"type": "Point", "coordinates": [-80.770567, 43.136123]}, "properties": {"Name": "WOODSTOCK, ON", "ID": "6149625", "Elevation_": "281 m"}}, {"type": "Feature", "geometry": {"type": "Point", "coordinates": [-77.394735, 44.15057]}, "properties": {"Name": "BELLEVILLE, ON", "ID": "6150689", "Elevation_": "76 m"}}, {"type": "Feature", "geometry": {"type": "Point", "coordinates": [-78.666667, 43.916667]}, "properties": {"Name": "BOWMANVILLE MOSTERT, ON", "ID": "6150830", "Elevation_": "99 m"}}, {"type": "Feature", "geometry": {"type": "Point", "coordinates": [-78.8, 44.033333]}, "properties": {"Name": "BURKETON MCLAUGHLIN, ON", "ID": "6151042", "Elevation_": "312 m"}}, {"type": "Feature", "geometry": {"type": "Point", "coordinates": [-79.816667, 43.35]}, "properties": {"Name": "BURLINGTON FIRE HQ'S, ON", "ID": "6151059", "Elevation_": "114 m"}}, {"type": "Feature", "geometry": {"type": "Point", "coordinates": [-77.8, 44.3]}, "properties": {"Name": "CAMPBELLFORD, ON", "ID": "6151137", "Elevation_": "146 m"}}, {"type": "Feature", "geometry": {"type": "Point", "coordinates": [-78.166667, 43.95]}, "properties": {"Name": "COBOURG (AUT), ON", "ID": "6151684", "Elevation_": "77 m"}}, {"type": "Feature", "geometry": {"type": "Point", "coordinates": [-79.066667, 43.9]}, "properties": {"Name": "GREENWOOD MTRCA, ON", "ID": "6153020", "Elevation_": "128 m"}}, {"type": "Feature", "geometry": {"type": "Point", "coordinates": [-79.934177, 43.171687]}, "properties": {"Name": "HAMILTON A, ON", "ID": "6153194", "Elevation_": "237 m"}}, {"type": "Feature", "geometry": {"type": "Point", "coordinates": [-79.908333, 43.291667]}, "properties": {"Name": "HAMILTON RBG CS, ON", "ID": "6153301", "Elevation_": "102 m"}}, {"type": "Feature", "geometry": {"type": "Point", "coordinates": [-79.783333, 43.733333]}, "properties": {"Name": "HEART LAKE, ON", "ID": "6153410", "Elevation_": "259 m"}}, {"type": "Feature", "geometry": {"type": "Point", "coordinates": [-76.633333, 43.933333]}, "properties": {"Name": "MAIN DUCK ISLAND, ON", "ID": "6154820", "Elevation_": "75 m"}}, {"type": "Feature", "geometry": {"type": "Point", "coordinates": [-79.483333, 43.866667]}, "properties": {"Name": "MAPLE, ON", "ID": "6154950", "Elevation_": "244 m"}}, {"type": "Feature", "geometry": {"type": "Point", "coordinates": [-79.95, 43.5]}, "properties": {"Name": "MILTON KELSO, ON", "ID": "6155187", "Elevation_": "243 m"}}, {"type": "Feature", "geometry": {"type": "Point", "coordinates": [-79.466667, 43.966667]}, "properties": {"Name": "OAK RIDGES, ON", "ID": "6155722", "Elevation_": "321 m"}}, {"type": "Feature", "geometry": {"type": "Point", "coordinates": [-78.833333, 43.866667]}, "properties": {"Name": "OSHAWA WPCP, ON", "ID": "6155878", "Elevation_": "83 m"}}, {"type": "Feature", "geometry": {"type": "Point", "coordinates": [-77.133333, 44.016667]}, "properties": {"Name": "PICTON, ON", "ID": "6156533", "Elevation_": "76 m"}}, {"type": "Feature", "geometry": {"type": "Point", "coordinates": [-77.15, 43.833333]}, "properties": {"Name": "POINT PETRE (AUT), ON", "ID": "6156559", "Elevation_": "78 m"}}, {"type": "Feature", "geometry": {"type": "Point", "coordinates": [-80.024447, 44.03225]}, "properties": {"Name": "MONO CENTRE, ON", "ID": "6157000", "Elevation_": "436 m"}}, {"type": "Feature", "geometry": {"type": "Point", "coordinates": [-77.666667, 44.083333]}, "properties": {"Name": "SMITHFIELD CDA, ON", "ID": "6157831", "Elevation_": "119 m"}}, {"type": "Feature", "geometry": {"type": "Point", "coordinates": [-79.25, 43.966667]}, "properties": {"Name": "STOUFFVILLE WPCP, ON", "ID": "6158084", "Elevation_": "266 m"}}, {"type": "Feature", "geometry": {"type": "Point", "coordinates": [-79.4, 43.666667]}, "properties": {"Name": "TORONTO CITY, ON", "ID": "6158355", "Elevation_": "112 m"}}, {"type": "Feature", "geometry": {"type": "Point", "coordinates": [-79.35, 43.65]}, "properties": {"Name": "TORONTO BOOTH, ON", "ID": "6158406", "Elevation_": "77 m"}}, {"type": "Feature", "geometry": {"type": "Point", "coordinates": [-79.266667, 43.766667]}, "properties": {"Name": "TORONTO ELLESMERE, ON", "ID": "6158520", "Elevation_": "164 m"}}, {"type": "Feature", "geometry": {"type": "Point", "coordinates": [-79.533333, 43.633333]}, "properties": {"Name": "TORONTO ETOBICOKE, ON", "ID": "6158525", "Elevation_": "118 m"}}, {"type": "Feature", "geometry": {"type": "Point", "coordinates": [-79.316667, 43.666667]}, "properties": {"Name": "TORONTO GREENWOOD, ON", "ID": "6158575", "Elevation_": "99 m"}}, {"type": "Feature", "geometry": {"type": "Point", "coordinates": [-79.395, 43.628611]}, "properties": {"Name": "TORONTO ISLAND A, ON", "ID": "6158665", "Elevation_": "76 m"}}, {"type": "Feature", "geometry": {"type": "Point", "coordinates": [-79.630556, 43.676667]}, "properties": {"Name": "TORONTO INTL A, ON", "ID": "6158731", "Elevation_": "173 m"}}, {"type": "Feature", "geometry": {"type": "Point", "coordinates": [-79.35, 43.716667]}, "properties": {"Name": "TORONTO LESLIE EGLINTON, ON", "ID": "6158732", "Elevation_": "133 m"}}, {"type": "Feature", "geometry": {"type": "Point", "coordinates": [-79.55, 43.8]}, "properties": {"Name": "TORONTO MET RES STN, ON", "ID": "6158740", "Elevation_": "193 m"}}, {"type": "Feature", "geometry": {"type": "Point", "coordinates": [-79.466667, 43.65]}, "properties": {"Name": "TORONTO OLD WESTON RD, ON", "ID": "6158764", "Elevation_": "121 m"}}, {"type": "Feature", "geometry": {"type": "Point", "coordinates": [-79.35, 43.783333]}, "properties": {"Name": "TORONTO SENECA HILL, ON", "ID": "61587PG", "Elevation_": "189 m"}}, {"type": "Feature", "geometry": {"type": "Point", "coordinates": [-77.533333, 44.116667]}, "properties": {"Name": "TRENTON A, ON", "ID": "6158875", "Elevation_": "86 m"}}, {"type": "Feature", "geometry": {"type": "Point", "coordinates": [-77.283333, 44.5]}, "properties": {"Name": "TWEED, ON", "ID": "6159010", "Elevation_": "144 m"}}, {"type": "Feature", "geometry": {"type": "Point", "coordinates": [-79.433333, 43.95]}, "properties": {"Name": "WILCOX LAKE, ON", "ID": "6159510", "Elevation_": "289 m"}}, {"type": "Feature", "geometry": {"type": "Point", "coordinates": [-79.383333, 43.75]}, "properties": {"Name": "TORONTO YORK MILLS, ON", "ID": "615HHDF", "Elevation_": "153 m"}}, {"type": "Feature", "geometry": {"type": "Point", "coordinates": [-79.37, 43.862222]}, "properties": {"Name": "TORONTO BUTTONVILLE A, ON", "ID": "615HMAK", "Elevation_": "198 m"}}, {"type": "Feature", "geometry": {"type": "Point", "coordinates": [-79.633333, 43.483333]}, "properties": {"Name": "OAKVILLE SOUTHEAST WPCP, ON", "ID": "615N745", "Elevation_": "86 m"}}, {"type": "Feature", "geometry": {"type": "Point", "coordinates": [-79.467788, 43.78002]}, "properties": {"Name": "TORONTO NORTH YORK, ON", "ID": "615S001", "Elevation_": "187 m"}}, {"type": "Feature", "geometry": {"type": "Point", "coordinates": [-78.531115, 45.032248]}, "properties": {"Name": "HALIBURTON 3, ON", "ID": "6163171", "Elevation_": "330 m"}}, {"type": "Feature", "geometry": {"type": "Point", "coordinates": [-78.733333, 44.35]}, "properties": {"Name": "LINDSAY FILTRATION PLANT, ON", "ID": "6164432", "Elevation_": "251 m"}}, {"type": "Feature", "geometry": {"type": "Point", "coordinates": [-78.366667, 44.233333]}, "properties": {"Name": "PETERBOROUGH A, ON", "ID": "6166418", "Elevation_": "191 m"}}, {"type": "Feature", "geometry": {"type": "Point", "coordinates": [-78.316667, 44.283333]}, "properties": {"Name": "PETERBOROUGH STP, ON", "ID": "6166450", "Elevation_": "192 m"}}, {"type": "Feature", "geometry": {"type": "Point", "coordinates": [-78.3, 44.35]}, "properties": {"Name": "PETERBOROUGH TRENT U, ON", "ID": "6166456", "Elevation_": "216 m"}}, {"type": "Feature", "geometry": {"type": "Point", "coordinates": [-78.683333, 45.1]}, "properties": {"Name": "WEST GUILFORD, ON", "ID": "6169453", "Elevation_": "327 m"}}, {"type": "Feature", "geometry": {"type": "Point", "coordinates": [-77.878889, 45.071389]}, "properties": {"Name": "BANCROFT AUTO, ON", "ID": "616I001", "Elevation_": "330 m"}}, {"type": "Feature", "geometry": {"type": "Point", "coordinates": [-71.197222, 46.836944]}, "properties": {"Name": "BEAUPORT, QC", "ID": "7010565", "Elevation_": "10 m"}}, {"type": "Feature", "geometry": {"type": "Point", "coordinates": [-71.266667, 46.866667]}, "properties": {"Name": "CHARLESBOURG PARC ORLEAN, QC", "ID": "7011309", "Elevation_": "114 m"}}, {"type": "Feature", "geometry": {"type": "Point", "coordinates": [-71.916667, 46.666667]}, "properties": {"Name": "DESCHAMBAULT, QC", "ID": "7011982", "Elevation_": "15 m"}}, {"type": "Feature", "geometry": {"type": "Point", "coordinates": [-71.3, 46.816667]}, "properties": {"Name": "DUBERGER, QC", "ID": "7012232", "Elevation_": "15 m"}}, {"type": "Feature", "geometry": {"type": "Point", "coordinates": [-71.65, 46.866667]}, "properties": {"Name": "DUCHESNAY, QC", "ID": "7012240", "Elevation_": "166 m"}}, {"type": "Feature", "geometry": {"type": "Point", "coordinates": [-73.433333, 46.016667]}, "properties": {"Name": "JOLIETTE VILLE, QC", "ID": "7013362", "Elevation_": "56 m"}}, {"type": "Feature", "geometry": {"type": "Point", "coordinates": [-73.434722, 45.809444]}, "properties": {"Name": "L'ASSOMPTION, QC", "ID": "7014160", "Elevation_": "21 m"}}, {"type": "Feature", "geometry": {"type": "Point", "coordinates": [-74.066667, 45.5]}, "properties": {"Name": "OKA, QC", "ID": "7015730", "Elevation_": "91 m"}}, {"type": "Feature", "geometry": {"type": "Point", "coordinates": [-71.216667, 46.8]}, "properties": {"Name": "QUEBEC, QC", "ID": "7016280", "Elevation_": "90 m"}}, {"type": "Feature", "geometry": {"type": "Point", "coordinates": [-72.083333, 46.716667]}, "properties": {"Name": "ST ALBAN, QC", "ID": "7016800", "Elevation_": "76 m"}}, {"type": "Feature", "geometry": {"type": "Point", "coordinates": [-71.5, 46.733333]}, "properties": {"Name": "ST AUGUSTIN, QC", "ID": "7016900", "Elevation_": "57 m"}}, {"type": "Feature", "geometry": {"type": "Point", "coordinates": [-73.6, 46.2]}, "properties": {"Name": "STE BEATRIX, QC", "ID": "7016902", "Elevation_": "198 m"}}, {"type": "Feature", "geometry": {"type": "Point", "coordinates": [-74.05, 45.566667]}, "properties": {"Name": "ST BENOIT, QC", "ID": "7016906", "Elevation_": "53 m"}}, {"type": "Feature", "geometry": {"type": "Point", "coordinates": [-71.616667, 46.85]}, "properties": {"Name": "STE CATHERINE, QC", "ID": "7016932", "Elevation_": "152 m"}}, {"type": "Feature", "geometry": {"type": "Point", "coordinates": [-74.2, 46.316667]}, "properties": {"Name": "ST DONAT, QC", "ID": "7017100", "Elevation_": "388 m"}}, {"type": "Feature", "geometry": {"type": "Point", "coordinates": [-71.283333, 46.75]}, "properties": {"Name": "STE FOY MATAPEDIA, QC", "ID": "7017B65", "Elevation_": "45 m"}}, {"type": "Feature", "geometry": {"type": "Point", "coordinates": [-71.316667, 46.783333]}, "properties": {"Name": "STE FOY (PIE XII), QC", "ID": "7017BFN", "Elevation_": "79 m"}}, {"type": "Feature", "geometry": {"type": "Point", "coordinates": [-72.733333, 46.563333]}, "properties": {"Name": "SHAWINIGAN, QC", "ID": "7018001", "Elevation_": "110 m"}}, {"type": "Feature", "geometry": {"type": "Point", "coordinates": [-71.166667, 46.883333]}, "properties": {"Name": "COURVILLE DE POISSY, QC", "ID": "701A9E0", "Elevation_": "114 m"}}, {"type": "Feature", "geometry": {"type": "Point", "coordinates": [-72.616667, 46.383333]}, "properties": {"Name": "TROIS RIVIERES AQUEDUC, QC", "ID": "701HE63", "Elevation_": "54 m"}}, {"type": "Feature", "geometry": {"type": "Point", "coordinates": [-71.381667, 46.803611]}, "properties": {"Name": "QUEBEC JEAN LESAGE INTL, QC", "ID": "701S001", "Elevation_": "60 m"}}, {"type": "Feature", "geometry": {"type": "Point", "coordinates": [-71.95, 46.016667]}, "properties": {"Name": "ARTHABASKA, QC", "ID": "7020305", "Elevation_": "140 m"}}, {"type": "Feature", "geometry": {"type": "Point", "coordinates": [-71.95, 45.766667]}, "properties": {"Name": "ASBESTOS, QC", "ID": "7020360", "Elevation_": "228 m"}}, {"type": "Feature", "geometry": {"type": "Point", "coordinates": [-72.566667, 45.183333]}, "properties": {"Name": "BROME, QC", "ID": "7020840", "Elevation_": "205 m"}}, {"type": "Feature", "geometry": {"type": "Point", "coordinates": [-71.2, 45.283333]}, "properties": {"Name": "CHARTIERVILLE, QC", "ID": "7021320", "Elevation_": "518 m"}}, {"type": "Feature", "geometry": {"type": "Point", "coordinates": [-71.983333, 45.816667]}, "properties": {"Name": "DANVILLE, QC", "ID": "7021954", "Elevation_": "190 m"}}, {"type": "Feature", "geometry": {"type": "Point", "coordinates": [-72.483333, 45.883333]}, "properties": {"Name": "DRUMMONDVILLE, QC", "ID": "7022160", "Elevation_": "82 m"}}, {"type": "Feature", "geometry": {"type": "Point", "coordinates": [-72.05, 46.483333]}, "properties": {"Name": "FORTIERVILLE, QC", "ID": "7022494", "Elevation_": "53 m"}}, {"type": "Feature", "geometry": {"type": "Point", "coordinates": [-72.85, 45.033333]}, "properties": {"Name": "FRELIGHSBURG, QC", "ID": "7022579", "Elevation_": "224 m"}}, {"type": "Feature", "geometry": {"type": "Point", "coordinates": [-72.233333, 45.133333]}, "properties": {"Name": "GEORGEVILLE, QC", "ID": "7022720", "Elevation_": "266 m"}}, {"type": "Feature", "geometry": {"type": "Point", "coordinates": [-72.773889, 45.372778]}, "properties": {"Name": "GRANBY, QC", "ID": "7022802", "Elevation_": "86 m"}}, {"type": "Feature", "geometry": {"type": "Point", "coordinates": [-71.466667, 45.383333]}, "properties": {"Name": "ISLAND BROOK, QC", "ID": "7023312", "Elevation_": "345 m"}}, {"type": "Feature", "geometry": {"type": "Point", "coordinates": [-70.866667, 45.6]}, "properties": {"Name": "LAC MEGANTIC 2, QC", "ID": "7023677", "Elevation_": "426 m"}}, {"type": "Feature", "geometry": {"type": "Point", "coordinates": [-71.1, 46.816667]}, "properties": {"Name": "LAUZON, QC", "ID": "7024254", "Elevation_": "69 m"}}, {"type": "Feature", "geometry": {"type": "Point", "coordinates": [-71.823611, 45.368889]}, "properties": {"Name": "LENNOXVILLE, QC", "ID": "7024280", "Elevation_": "181 m"}}, {"type": "Feature", "geometry": {"type": "Point", "coordinates": [-71.366667, 45.633333]}, "properties": {"Name": "LINGWICK, QC", "ID": "7024320", "Elevation_": "266 m"}}, {"type": "Feature", "geometry": {"type": "Point", "coordinates": [-71.4, 45.333333]}, "properties": {"Name": "MAPLE LEAF EAST, QC", "ID": "7024624", "Elevation_": "444 m"}}, {"type": "Feature", "geometry": {"type": "Point", "coordinates": [-73.579167, 45.504742]}, "properties": {"Name": "MCTAVISH, QC", "ID": "7024745", "Elevation_": "72 m"}}, {"type": "Feature", "geometry": {"type": "Point", "coordinates": [-71.15, 45.45]}, "properties": {"Name": "MONT MEGANTIC, QC", "ID": "7025212", "Elevation_": "1111 m"}}, {"type": "Feature", "geometry": {"type": "Point", "coordinates": [-73.55, 45.566667]}, "properties": {"Name": "MONTREAL JAR BOT, QC", "ID": "7025257", "Elevation_": "45 m"}}, {"type": "Feature", "geometry": {"type": "Point", "coordinates": [-73.616667, 45.5]}, "properties": {"Name": "MONTREAL JEAN BREBEUF, QC", "ID": "7025260", "Elevation_": "132 m"}}, {"type": "Feature", "geometry": {"type": "Point", "coordinates": [-73.566667, 45.516667]}, "properties": {"Name": "MONTREAL LAFONTAINE, QC", "ID": "7025267", "Elevation_": "41 m"}}, {"type": "Feature", "geometry": {"type": "Point", "coordinates": [-72.616667, 46.2]}, "properties": {"Name": "NICOLET, QC", "ID": "7025440", "Elevation_": "30 m"}}, {"type": "Feature", "geometry": {"type": "Point", "coordinates": [-74.05, 45.116667]}, "properties": {"Name": "ORMSTOWN, QC", "ID": "7025745", "Elevation_": "45 m"}}, {"type": "Feature", "geometry": {"type": "Point", "coordinates": [-73.678889, 45.167222]}, "properties": {"Name": "STE-CLOTILDE, QC", "ID": "7027039", "Elevation_": "53 m"}}, {"type": "Feature", "geometry": {"type": "Point", "coordinates": [-73.783333, 45.516667]}, "properties": {"Name": "STE DOROTHEE, QC", "ID": "7027110", "Elevation_": "23 m"}}, {"type": "Feature", "geometry": {"type": "Point", "coordinates": [-71.683333, 45.2]}, "properties": {"Name": "STE EDWIDGE, QC", "ID": "7027120", "Elevation_": "381 m"}}, {"type": "Feature", "geometry": {"type": "Point", "coordinates": [-70.966667, 46.066667]}, "properties": {"Name": "ST EPHREM, QC", "ID": "7027200", "Elevation_": "312 m"}}, {"type": "Feature", "geometry": {"type": "Point", "coordinates": [-71.583333, 46.1]}, "properties": {"Name": "ST FERDINAND, QC", "ID": "7027248", "Elevation_": "297 m"}}, {"type": "Feature", "geometry": {"type": "Point", "coordinates": [-71.566667, 46.483333]}, "properties": {"Name": "ST FLAVIEN, QC", "ID": "7027259", "Elevation_": "137 m"}}, {"type": "Feature", "geometry": {"type": "Point", "coordinates": [-70.7, 46.15]}, "properties": {"Name": "ST GEORGES, QC", "ID": "7027283", "Elevation_": "167 m"}}, {"type": "Feature", "geometry": {"type": "Point", "coordinates": [-72.766667, 45.883333]}, "properties": {"Name": "ST GUILLAUME, QC", "ID": "7027302", "Elevation_": "43 m"}}, {"type": "Feature", "geometry": {"type": "Point", "coordinates": [-73.416667, 45.516667]}, "properties": {"Name": "MONTREAL ST-HUBERT A, QC", "ID": "7027320", "Elevation_": "27 m"}}, {"type": "Feature", "geometry": {"type": "Point", "coordinates": [-71.516667, 45.266667]}, "properties": {"Name": "ST ISIDORE D'AUCKLAND, QC", "ID": "7027372", "Elevation_": "393 m"}}, {"type": "Feature", "geometry": {"type": "Point", "coordinates": [-73.133333, 45.616667]}, "properties": {"Name": "STE MADELEINE, QC", "ID": "7027517", "Elevation_": "30 m"}}, {"type": "Feature", "geometry": {"type": "Point", "coordinates": [-71.216667, 46.25]}, "properties": {"Name": "ST PIERRE DE BROUGHTON, QC", "ID": "7027656", "Elevation_": "365 m"}}, {"type": "Feature", "geometry": {"type": "Point", "coordinates": [-70.95, 45.766667]}, "properties": {"Name": "ST SEBASTIEN, QC", "ID": "7027725", "Elevation_": "442 m"}}, {"type": "Feature", "geometry": {"type": "Point", "coordinates": [-70.483333, 45.933333]}, "properties": {"Name": "ST THEOPHILE, QC", "ID": "7027750", "Elevation_": "395 m"}}, {"type": "Feature", "geometry": {"type": "Point", "coordinates": [-70.383333, 46.116667]}, "properties": {"Name": "ST ZACHARIE, QC", "ID": "7027785", "Elevation_": "480 m"}}, {"type": "Feature", "geometry": {"type": "Point", "coordinates": [-71.533333, 45.366667]}, "properties": {"Name": "SAWYERVILLE NORD, QC", "ID": "7027802", "Elevation_": "345 m"}}, {"type": "Feature", "geometry": {"type": "Point", "coordinates": [-71.9, 45.4]}, "properties": {"Name": "SHERBROOKE, QC", "ID": "7028120", "Elevation_": "181 m"}}, {"type": "Feature", "geometry": {"type": "Point", "coordinates": [-71.683333, 45.433333]}, "properties": {"Name": "SHERBROOKE A, QC", "ID": "7028124", "Elevation_": "241 m"}}, {"type": "Feature", "geometry": {"type": "Point", "coordinates": [-71.35, 46.1]}, "properties": {"Name": "THETFORD MINES, QC", "ID": "7028441", "Elevation_": "381 m"}}, {"type": "Feature", "geometry": {"type": "Point", "coordinates": [-70.933333, 46.383333]}, "properties": {"Name": "VALLEE JONCTION, QC", "ID": "7028676", "Elevation_": "152 m"}}, {"type": "Feature", "geometry": {"type": "Point", "coordinates": [-74.1, 45.283333]}, "properties": {"Name": "VALLEYFIELD, QC", "ID": "7028680", "Elevation_": "45 m"}}, {"type": "Feature", "geometry": {"type": "Point", "coordinates": [-70.785, 46.205]}, "properties": {"Name": "BEAUCEVILLE, QC", "ID": "7028754", "Elevation_": "229 m"}}, {"type": "Feature", "geometry": {"type": "Point", "coordinates": [-71.3, 45.4]}, "properties": {"Name": "WEST DITTON, QC", "ID": "7028906", "Elevation_": "512 m"}}, {"type": "Feature", "geometry": {"type": "Point", "coordinates": [-70.866667, 45.383333]}, "properties": {"Name": "WOBURN, QC", "ID": "7028946", "Elevation_": "396 m"}}, {"type": "Feature", "geometry": {"type": "Point", "coordinates": [-73.929167, 45.427222]}, "properties": {"Name": "STE-ANNE-DE-BELLEVUE 1, QC", "ID": "702FHL8", "Elevation_": "39 m"}}, {"type": "Feature", "geometry": {"type": "Point", "coordinates": [-73.349444, 45.293889]}, "properties": {"Name": "L'ACADIE, QC", "ID": "702LED4", "Elevation_": "43 m"}}, {"type": "Feature", "geometry": {"type": "Point", "coordinates": [-73.741667, 45.467778]}, "properties": {"Name": "MONTREAL PIERRE ELLIOTT TRUDEAU INTL, QC", "ID": "702S006", "Elevation_": "32 m"}}, {"type": "Feature", "geometry": {"type": "Point", "coordinates": [-75.55, 45.55]}, "properties": {"Name": "ANGERS, QC", "ID": "7030170", "Elevation_": "91 m"}}, {"type": "Feature", "geometry": {"type": "Point", "coordinates": [-75.983333, 46.716667]}, "properties": {"Name": "BARRAGE MERCIER, QC", "ID": "7030457", "Elevation_": "236 m"}}, {"type": "Feature", "geometry": {"type": "Point", "coordinates": [-75.083333, 45.9]}, "properties": {"Name": "CHENEVILLE, QC", "ID": "7031375", "Elevation_": "222 m"}}, {"type": "Feature", "geometry": {"type": "Point", "coordinates": [-76.006056, 46.301806]}, "properties": {"Name": "MANIWAKI UA, QC", "ID": "7034480", "Elevation_": "188 m"}}, {"type": "Feature", "geometry": {"type": "Point", "coordinates": [-74.033333, 45.666667]}, "properties": {"Name": "MONTREAL MIRABEL INT'L A, QC", "ID": "7035290", "Elevation_": "82 m"}}, {"type": "Feature", "geometry": {"type": "Point", "coordinates": [-75.083333, 46.4]}, "properties": {"Name": "NOMININGUE, QC", "ID": "7035520", "Elevation_": "274 m"}}, {"type": "Feature", "geometry": {"type": "Point", "coordinates": [-74.283333, 46.05]}, "properties": {"Name": "STE AGATHE DES MONTS, QC", "ID": "7036762", "Elevation_": "394 m"}}, {"type": "Feature", "geometry": {"type": "Point", "coordinates": [-74.05, 45.8]}, "properties": {"Name": "ST JEROME, QC", "ID": "7037400", "Elevation_": "169 m"}},